아파트명,주소,lat,lon
우리유앤미,서울특별시 동작구 서달로 83,37.5006676,126.9596386
송파파인타운13단지,서울특별시 송파구 송파대로8길 10,37.4768967,127.1291789
오금현대백조(임대),서울특별시 송파구 양재대로72길 20,37.5089058,127.1287745
개봉건영,서울특별시 구로구 고척로21나길 85-6,37.5011622,126.8406749
월계동원베네스트,서울특별시 노원구 월계로53길 21,37.631732,127.0582196
양재우성KBS(113동),서울특별시 서초구 바우뫼로 91,37.4775008,127.0290739
천호삼익,서울특별시 강동구 상암로12길 13,37.5485886,127.1284727
자양경남아너스빌,서울특별시 광진구 자양로3길 55,37.5294321,127.083991
신사성원,서울 은평구 신사동 360,37.6004574,126.9133122
신월대방샤인힐,서울특별시 양천구 신월로9길 37,37.5204711,126.8384999
문정3차푸르지오,서울특별시 송파구 송이로 257,37.4871243,127.1332779
잠원한신그린,서울특별시 서초구 신반포로33길 71,37.5133709,127.0078749
천호e-편한세상,서울특별시 강동구 올림픽로81길 15,37.5443727,127.1243522
경희궁의아침3단지,서울특별시 종로구 사직로8길 34,37.5736451,126.9720155
성내2차e-편한세상,서울특별시 강동구 풍성로37길 55,37.53436,127.1264298
사당유니드,서울특별시 동작구 동작대로29길 195,37.493362,126.9752458
신내다우훼밀리,서울특별시 중랑구 송림길 16,37.6060585,127.0971514
명일삼익그린11차,서울특별시 강동구 명일로 376,37.5518066,127.1504982
공릉대동1차,서울특별시 노원구 동일로175길 38,37.6198604,127.072532
오류동선,서울특별시 구로구 경인로 158,37.4936836,126.8394712
여의도초원,서울특별시 영등포구 국회대로76가길 11,37.5309637,126.9231927
목동금강에스쁘아,서울특별시 양천구 목동중앙본로 15,37.5380526,126.8714021
방학신동아5단지,서울특별시 도봉구 시루봉로 148,37.6636195,127.0285219
공릉신원,서울특별시 노원구 동일로192나길 26,37.6277644,127.0751067
신정학마을3단지,서울특별시 양천구 신정로 225-12,37.5115753,126.8472095
신내우남푸르미아,서울특별시 중랑구 봉화산로56길 51,37.6061739,127.0987566
엠브이아파트,서울특별시 서초구 고무래로10길 39,37.4992014,127.0102751
쌍문동북한산월드메르디앙,서울특별시 도봉구 삼양로 566,37.653846,127.0139503
독산진도2차,서울특별시 금천구 두산로 36,37.4700234,126.8922168
독산계룡,서울특별시 금천구 범안로15길 7,37.4671531,126.8927936
목동대원칸타빌,서울특별시 양천구 목동로 224,37.5285923,126.8650937
신도림우성5차,서울특별시 구로구 신도림로21길 21,37.5127235,126.8837922
마곡서광2차아파트,서울특별시 강서구 양천로14길 17,37.5720228,126.8106819
서초1차e편한세상,서울특별시 서초구 명달로6길 31,37.4812021,127.0067349
목동성원,서울특별시 양천구 목동중앙로 67,37.5358469,126.8699072
북한산수자인,서울특별시 은평구 불광로 170,37.6216983,126.9321696
브라운스톤쌍문,서울특별시 도봉구 노해로40길 71,37.6471154,127.0295935
도곡동양재디오빌,서울특별시 강남구 강남대로 256,37.4864782,127.0335386
유원목동,서울특별시 양천구 신목로 77,37.5217974,126.8736268
천호현대,서울특별시 강동구 진황도로 47-2,37.5383992,127.1329005
중화극동,서울특별시 중랑구 봉화산로27길 32,37.6036519,127.0837949
신림현대성우,서울특별시 관악구 남부순환로198길 7,37.4837087,126.9372705
평창롯데,서울특별시 종로구 평창문화로 140,37.6091332,126.9756922
문정세양청마루,서울특별시 송파구 송이로31길 66,37.4924314,127.1370266
보라매갑을,서울특별시 관악구 관천로24길 3,37.4891251,126.9219256
성수두산위브,서울특별시 성동구 뚝섬로 434,37.5372327,127.0584774
신도림쌍용플래티넘노블,서울특별시 구로구 공원로 40,37.5009591,126.8912982
대림갑을명가,서울특별시 영등포구 대림로22길 29,37.4956182,126.9036771
공릉1동삼익,서울특별시 노원구 섬밭로 17,37.6181002,127.0723375
자양한강극동,서울특별시 광진구 능동로3길 53,37.5336956,127.0644764
청담삼성1차,서울특별시 강남구 삼성로133길 20,37.5194421,127.0478619
창동현대타운(주복),서울특별시 도봉구 도봉로114길 22-8,37.6470839,127.0352336
성수금호3차,서울특별시 성동구 뚝섬로5길 17,37.5420274,127.0504009
도봉서광,서울특별시 도봉구 마들로 770,37.6783964,127.049861
묵동세방,서울특별시 중랑구 숙선옹주로9길 25,37.6153547,127.0835522
광장11현대홈타운,서울특별시 광진구 아차산로69길 29,37.5430085,127.0969941
서초2차e편한세상,서울특별시 서초구 효령로49길 57,37.4862357,127.0090583
휘경서울가든,서울특별시 동대문구 겸재로 24,37.5841565,127.0711253
가락현대6차,서울특별시 송파구 송이로19길 8,37.4972327,127.1226268
여의도화랑,서울특별시 영등포구 국제금융로7가길 21,37.5221449,126.9355476
문래진주,서울특별시 영등포구 선유로9길 31,37.5171755,126.8847882
신길삼두,서울특별시 영등포구 여의대방로61길 19,37.5143228,126.9238594
논현동부센트레빌,서울특별시 강남구 언주로116길 6,37.5103594,127.0376735
응암경남,서울특별시 은평구 가좌로7나길 35,37.5833193,126.9203156
서초현대4차,서울특별시 서초구 고무래로 94,37.5003507,127.0178518
역삼휴먼터치빌,서울특별시 강남구 논현로 565,37.5064114,127.0338294
방화진로,서울특별시 강서구 금낭화로 258,37.5770526,126.8084237
잠원킴스빌리지,서울특별시 서초구 잠원로3길 6,37.5109145,127.0067114
강서월드메르디앙,서울특별시 강서구 공항대로42길 54-26,37.5568955,126.843127
구로대성스카이렉스,서울특별시 구로구 공원로 27,37.4994441,126.8909539
마포경남아너스빌,서울특별시 마포구 신수로 81,37.5487707,126.934029
방배브라운가,서울특별시 서초구 방배로19길 67,37.4835259,126.9919326
면목신성미소지움,서울특별시 중랑구 용마산로86길 9-27,37.587218,127.0961012
서초3차e편한세상,서울특별시 서초구 남부순환로 2343-10,37.4785869,127.0077138
종암우림카이저팰리스,서울특별시 성북구 종암로 132,37.6018897,127.0334853
길동우성1차,서울특별시 강동구 천중로49길 58,37.5432755,127.1445299
가락우성2차아파트,서울특별시 송파구 중대로12길 35,37.4918819,127.1255185
상도동원베네스트,서울특별시 동작구 상도로34길 42,37.5029264,126.9444312
고척경남1차,서울특별시 구로구 경인로47길 150,37.5052906,126.8627712
묵동동구햇살,서울특별시 중랑구 동일로169길 41,37.613353,127.0747746
대방경남아너스빌,서울특별시 동작구 여의대방로54길 6,37.5116136,126.9256082
염창2차한화꿈에그린,서울특별시 강서구 공항대로63길 16,37.5515337,126.8668736
역삼경남,서울특별시 강남구 언주로85길 13,37.5005747,127.0423208
가양중앙하이츠,서울특별시 강서구 허준로 55-20,37.5698077,126.8492901
보라매두산위브,서울 영등포구 신길동 4497번지,37.4972694,126.9144293
용마산금호어울림,서울특별시 중랑구 용마산로 290,37.5770579,127.091721
양평서통한신,서울특별시 영등포구 영등포로12길 7,37.5216885,126.8878466
대망드림힐,서울특별시 노원구 동일로242라길 27,37.6763152,127.0584516
고척양우,서울특별시 구로구 고척로52길 9,37.504745,126.8566086
동양엔파트,서울특별시 마포구 백범로 82,37.5479468,126.9406061
문정푸르지오2차,서울특별시 송파구 송이로32길 37,37.4867371,127.1270852
아남,서울특별시 서초구 사임당로23길 53,37.4929518,127.020739
문래현대3차,서울특별시 영등포구 선유서로 6,37.5161019,126.8844422
구로금호어울림,서울특별시 구로구 공원로 26,37.5000583,126.8919875
잠원신화,서울특별시 서초구 잠원로14길 54,37.5157083,127.0136875
송파현대힐스테이트,서울특별시 송파구 풍성로26길 31,37.5311152,127.1184957
염창 일신건영휴먼빌아파트,서울특별시 강서구 양천로71가길 22,37.5520432,126.8731713
구로2차순영웰라이빌,서울특별시 구로구 가마산로 280,37.4960263,126.891625
신이문금호어울림,서울특별시 동대문구 신이문로 9,37.6041205,127.063182
뉴신사신성,서울특별시 은평구 은평터널로 163,37.5935011,126.9062236
중계성원2차,서울특별시 노원구 덕릉로89길 8,37.6611671,127.0752242
방학극동,서울특별시 도봉구 시루봉로11길 25-5,37.6645017,127.0268136
번동동문아파트,서울특별시 강북구 오현로 128,37.6239797,127.0382004
삼성청구타운,서울특별시 강남구 영동대로128길 5,37.5197827,127.0583783
당산신동아파밀리에,서울특별시 영등포구 영신로33길 3,37.519805,126.9003963
반포삼호가든맨션5차,서울특별시 서초구 서초중앙로 242,37.5039415,127.0115013
한양현대아파트,서울특별시 성동구 상원1길 17,37.5455297,127.0479977
등촌임광,서울특별시 강서구 등촌로 113,37.5404837,126.8633551
잠원동대우아이빌,서울특별시 서초구 신반포로45길 23,37.5113932,127.0183736
면목성원,서울특별시 중랑구 용마산로 278,37.5774892,127.0907522
염창월드메르디앙,서울특별시 강서구 양천로71길 38,37.5528637,126.8727626
대우디오빌플러스,서울특별시 강남구 강남대로84길 33,37.4975858,127.0311179
신월2차보람쉬움,서울특별시 양천구 오목로1길 46,37.5243291,126.8369039
정릉2차대주피오레,서울특별시 성북구 아리랑로19길 86,37.6018169,127.008977
신금호두산위브,서울특별시 성동구 행당로 27,37.5559626,127.0223133
신월성원,서울특별시 양천구 곰달래로2길 16,37.5282122,126.8339527
양평우림루미아트,서울특별시 영등포구 선유로33길 23,37.5265939,126.8880477
둔촌동동아,서울특별시 강동구 동남로49길 60-5,37.5331763,127.1458735
등촌현대1차(한마음),서울특별시 강서구 공항대로45길 24,37.5559066,126.8553276
방화삼성,서울특별시 강서구 방화대로34길 113,37.5721234,126.8221909
문래미원아파트,서울특별시 영등포구 문래로8길 5,37.5198906,126.8864037
마장중앙하이츠,서울특별시 성동구 마장로 262,37.5654091,127.039119
청암자이,서울특별시 용산구 삼개로 60,37.5351772,126.9467137
목동삼성쉐르빌2차,서울특별시 양천구 목동동로 177,37.5216391,126.8704458
남현동한일유앤아이,서울특별시 관악구 남부순환로256라길 25,37.471705,126.9735651
상계마들,서울특별시 노원구 덕릉로70가길 101,37.6416927,127.0569566
구산경향파크,서울특별시 은평구 갈현로15길 53,37.6103948,126.9059489
신대방신동아,서울특별시 동작구 여의대방로22아길 22,37.4965836,126.9240174
도곡현대그린,서울특별시 강남구 논현로51길 25,37.4889362,127.0397135
묵동신안2차,서울특별시 중랑구 공릉로2나길 46,37.6141168,127.0800228
목동현대아이파크,서울특별시 양천구 목동로 230,37.528994,126.8650035
신월수명산SK-VIEW,서울특별시 양천구 월정로 306,37.5440478,126.8293478
성사1차 풍림아파트,서울 마포구 성산동 600번지,37.5685044,126.9124027
서빙고금호베스트빌,서울 용산구 서빙고동 nan,37.5230753,126.9917568
신개봉삼환,서울특별시 구로구 경인로38길 13,37.4966551,126.8579501
마천금호어울림2차,서울특별시 송파구 성내천로 314,37.4930747,127.1557137
용마한신2차아파트,서울 중랑구 면목동 용마2차한신아파트,37.5810758,127.0944705
공릉대아2차,서울특별시 노원구 동일로183길 34,37.623339,127.0714453
상계성원,서울특별시 노원구 노원로34길 34,37.6604417,127.0658841
천호유원,서울특별시 강동구 상암로12길 24,37.5487741,127.1278651
용마동아아파트,서울특별시 중랑구 용마산로62길 43,37.5786737,127.0944957
브라운스톤 방학아파트,서울특별시 도봉구 도봉로146길 36,37.6636237,127.045175
신대방우성2차,서울특별시 동작구 여의대방로 8,37.4920816,126.9115326
노량진삼익,서울특별시 동작구 만양로 84,37.5109978,126.9451391
양재신영체르니,서울특별시 서초구 논현로27길 57,37.4791982,127.0413928
평창삼성,서울특별시 종로구 평창문화로 172,37.6107886,126.9783329
양평상록수,서울특별시 영등포구 영등포로 17,37.5237845,126.8835422
신창세방리버하이빌,서울특별시 용산구 효창원로15길 16,37.5370379,126.9541123
가양일신건영휴먼빌,서울특별시 강서구 강서로 490,37.5690251,126.841903
신반포한신14차,서울 서초구 잠원동 74,37.5087932,127.002301
이수교스위첸,서울 동작구 동작동 이수교KCC스위첸아파트,37.4976599,126.9810779
삼성하나로,서울특별시 강서구 양천로73길 5,37.5515375,126.8722863
아남리치카운티,서울특별시 중랑구 겸재로29길 27,37.5892249,127.0849955
자양현대6차,서울특별시 광진구 자양번영로3길 66,37.5328509,127.0716693
면목금호어울림,서울특별시 중랑구 용마산로 271,37.5773348,127.0892552
신사두산위브,서울특별시 은평구 갈현로1길 36,37.5999489,126.9057246
목동진도2차,서울특별시 양천구 목동동로 250,37.5256697,126.873797
양평경남1차,서울특별시 영등포구 선유로33길 22,37.5272237,126.8885519
양평동삼천리아파트,서울특별시 영등포구 선유서로 115,37.5262329,126.8853638
신성수정,서울특별시 은평구 은평터널로7길 2,37.5927487,126.9063355
개포우성5차,서울특별시 강남구 언주로29길 34,37.4859774,127.0475885
신반포15차아파트,서울 서초구 반포동 12번지,37.5038318,126.9936943
봉천은천1단지,서울특별시 관악구 인헌12길 46-2,37.4714734,126.9647078
중동계룡,서울특별시 마포구 월드컵북로38가길 20,37.5706353,126.905875
마곡금호어울림,서울특별시 강서구 양천로47길 94,37.5746242,126.8376117
중계청암3단지,서울특별시 노원구 덕릉로86길 70,37.6608487,127.0797206
래미안수유(임대),서울특별시 강북구 한천로159길 8,37.6447964,127.0181926
홍은풍림1차,서울특별시 서대문구 통일로48가길 37,37.5949317,126.9420732
망원1차대림,서울특별시 마포구 망원로2길 103,37.5534385,126.90486
송파파인타운4단지,서울특별시 송파구 새말로12길 16,37.4818131,127.1296412
목동진도1차,서울특별시 양천구 목동서로 264,37.5244455,126.868592
자양현대,서울특별시 광진구 뚝섬로56길 72,37.5281212,127.0824168
중곡SK,서울특별시 광진구 용마산로 174,37.5688712,127.086509
신도신월1차,서울특별시 양천구 신월로20길 33,37.51794,126.8468136
오류금호어울림,서울특별시 구로구 고척로 41,37.4984546,126.8391422
사당삼익그린뷰,서울특별시 동작구 남부순환로255길 21,37.4772227,126.9691308
공덕현대,서울특별시 마포구 마포대로11길 73,37.5482962,126.9501318
창동금용,서울특별시 도봉구 우이천로 200,37.6378476,127.0356752
역삼금호어울림,서울특별시 강남구 도곡로7길 22,37.4920882,127.0349001
면목삼호,서울특별시 중랑구 용마산로 259,37.5763667,127.088375
양평동보아파트,서울특별시 영등포구 양평로23길 18,37.5379791,126.8909429
청담삼환,서울특별시 강남구 학동로77길 49,37.5216958,127.0476322
서초자이,서울특별시 서초구 효령로68길 81,37.4848719,127.0202181
천호현대타워,서울특별시 강동구 천호대로 1095,37.5364504,127.1346427
한솔리베르,서울특별시 광진구 뚝섬로56가길 28,37.5281456,127.084689
시흥금강,서울특별시 금천구 독산로50길 57-2,37.4630828,126.9080935
상일동아,서울특별시 강동구 상암로81길 7,37.5461461,127.1675162
염창우성2차,서울특별시 강서구 양천로67길 54,37.5556867,126.8695201
등촌태영,서울특별시 강서구 양천로 590,37.55566,126.8641456
문래한신,서울특별시 영등포구 선유서로 35,37.5193166,126.8840481
신정대성유니드아파트2차,서울특별시 양천구 중앙로29길 108,37.5209773,126.8488666
방화3차우림필유,서울특별시 강서구 양천로14길 118,37.5733512,126.7983185
화곡2차보람,서울특별시 강서구 공항대로48길 12,37.5540644,126.8546342
청담휴먼스타빌,서울특별시 강남구 도산대로 454,37.5237052,127.0460731
창동대동,서울특별시 도봉구 도봉로 642-30,37.6617487,127.0440625
개봉상우,서울 구로구 개봉동 473 개봉상우아파트,37.4936411,126.8613898
브라운스톤구산,서울특별시 은평구 갈현로17길 17,37.6115205,126.9092409
구로월드,서울특별시 구로구 구로중앙로 229,37.5055458,126.875877
신월대주파크빌,서울특별시 양천구 남부순환로85길 16,37.5144203,126.8426052
성산2차e-편한세상,서울특별시 마포구 월드컵북로 216,37.5697756,126.9053595
포스코더샵스타리버,서울특별시 송파구 올림픽로35길 93,37.5177485,127.1044137
도봉현대성우,서울특별시 도봉구 마들로 735-8,37.676276,127.0476751
월계한일1차,서울특별시 노원구 석계로15길 25,37.6219737,127.0615753
공릉대동2차,서울특별시 노원구 동일로195길 39,37.6266546,127.0701721
쌍문대우파크힐아파트,서울특별시 도봉구 시루봉로 8,37.6515473,127.0292393
등촌코오롱오투빌1차,서울특별시 강서구 화곡로66길 90,37.5560031,126.8582916
예성그린캐슬아파트,서울특별시 중랑구 용마산로112가길 34,37.597046,127.1020462
공릉대주파크빌,서울특별시 노원구 섬밭로 52,37.6211799,127.0722615
코오롱하늘채아파트,서울특별시 은평구 갈현로29길 62,37.6232165,126.9109852
쌍문현대2차,서울특별시 도봉구 시루봉로6길 53,37.6593237,127.0300422
여의도서울,서울특별시 영등포구 여의나루로 121,37.5270586,126.9311508
이촌반도,서울특별시 용산구 이촌로 324-10,37.5170003,126.9819539
신수세양청마루,서울특별시 마포구 독막로 209,37.5477681,126.9368027
녹번현대2차,서울특별시 은평구 서오릉로 46,37.6051208,126.9246203
진로유통조합아파트(진로대림아파트),서울 노원구 중계동 78,37.6486779,127.0820882
홍제남양,서울특별시 서대문구 홍제내길 168,37.5887933,126.9381745
공덕한화꿈에그린,서울특별시 마포구 마포대로10길 22,37.5471128,126.9554496
방배3차e편한세상,서울특별시 서초구 동광로 89-5,37.4943275,126.9917515
갈현한솔아파트,서울특별시 은평구 갈현로23길 41,37.6181006,126.9100162
묵동금호어울림,서울특별시 중랑구 공릉로2길 39,37.6127305,127.0800529
정릉쌍용,서울특별시 성북구 북악산로 847,37.5995474,127.0183398
장안2차현대홈타운,서울특별시 동대문구 장한로26다길 84,37.5685321,127.0715649
서초한신플러스타운,서울특별시 서초구 남부순환로323길 38-15,37.4824547,127.0138848
창동성원,서울특별시 도봉구 마들로16길 56,37.660802,127.0497889
북한산한신휴플러스,서울특별시 도봉구 도봉로136가길 73,37.654516,127.0464538
오금우방,서울특별시 송파구 성내천로 87,37.501501,127.1395964
둔촌현대2차,서울특별시 강동구 풍성로65길 34,37.5300052,127.1408785
도화현대,서울특별시 마포구 새창로6다길 22,37.5402834,126.9539119
염창우성3차,서울특별시 강서구 공항대로63길 14,37.5512975,126.8674295
여의도장미,서울특별시 영등포구 국제금융로7길 32,37.5234281,126.9342433
정릉우방아파트,서울특별시 성북구 북악산로 746,37.6002122,127.0097457
DMC청구,서울 은평구 수색동 413번지,37.5811202,126.9014333
청담대우유로카운티,서울특별시 강남구 도산대로92길 10,37.5235176,127.0500382
현대공무원,서울특별시 금천구 금하로23라길 31,37.4540267,126.9106809
도곡대림,서울 강남구 도곡동 960번지,37.4866347,127.040409
신림초원,서울특별시 관악구 미성5길 40,37.4734101,126.9141266
상도경향렉스빌,서울특별시 동작구 양녕로23길 9,37.4952643,126.9422939
DMC휴먼빌,서울특별시 서대문구 거북골로18가길 23,37.5773849,126.912154
망우신원,서울특별시 중랑구 망우로 504-7,37.5999879,127.1084773
천호코오롱,서울특별시 강동구 진황도로 12,37.5394858,127.1283799
삼성현대,서울특별시 강남구 학동로64길 14,37.5167109,127.044375
개포현대3차,서울특별시 강남구 개포로 409,37.4878695,127.0613626
하월곡아남,서울특별시 성북구 종암로36길 52,37.6056942,127.0347011
양평경남2차아너스빌,서울특별시 영등포구 양평로17길 9,37.5357495,126.8962196
공릉신성미소지움,서울특별시 노원구 공릉로42길 13-14,37.6250356,127.0810608
불광대호2차,서울특별시 은평구 불광로 90,37.6147577,126.9328692
월계극동,서울 노원구 월계동 nan,37.6295448,127.0459205
마천금호,서울특별시 송파구 마천로57길 16,37.4947152,127.1533259
방배1차이편한세상,서울특별시 서초구 서초대로34길 34,37.4875435,126.9992461
우성캐릭터199 아파트,서울특별시 강남구 언주로 118,37.4865208,127.0518892
면목마젤란,서울특별시 중랑구 겸재로30길 42,37.5868369,127.0841438
신반포한신23차,서울 서초구 반포동 신반포아파트,37.5094382,127.0011826
목동성원,서울특별시 양천구 목동서로 234,37.5264032,126.8693341
갈현미미,서울특별시 은평구 갈현로29길 11,37.6189819,126.913541
당산삼익,서울특별시 영등포구 국회대로 552,37.5279629,126.8953498
도림청구,서울특별시 영등포구 도영로7길 7,37.549662,127.1088843
광장일신워커힐,서울 광진구 광장동 148-4,37.549662,127.1088843
신월서울가든,서울특별시 양천구 중앙로53길 5,37.5252901,126.848656
코오롱하늘채아파트,서울특별시 강서구 공항대로55길 19,37.554268,126.8606406
도봉파크빌3단지,서울특별시 도봉구 마들로 891,37.6876334,127.048658
문래대림,서울특별시 영등포구 선유로 33,37.5170201,126.8880592
보라매코오롱하늘채,서울특별시 동작구 여의대방로24다길 40,37.4985351,126.9231264
신림우방,서울특별시 관악구 관천로27길 2,37.4889489,126.9188034
창동현대4차아이파크,서울특별시 도봉구 노해로69가길 54,37.6589076,127.0459487
창동한신,서울특별시 도봉구 도봉로110다길 5,37.6457291,127.0349775
마곡현대아파트,서울특별시 강서구 양천로 140,37.5730247,126.8192912
번동한진,서울특별시 강북구 월계로37길 65,37.6248335,127.0446321
성수한강한신,서울특별시 성동구 성수이로 3,37.5358423,127.0527166
염창1차보람더하임,서울특별시 강서구 양천로 666,37.5516408,126.8703148
삼창타워프라자,서울특별시 노원구 한글비석로 383,37.6589806,127.0726659
봉천벽산타운2차,서울특별시 관악구 구암5가길 49,37.49251,126.9460383
암사동한솔아파트,서울특별시 강동구 암사19길 25,37.5520769,127.1403182
성내1차e-편한세상,서울특별시 강동구 천호대로168길 58,37.5332423,127.1309281
동양파라곤,서울특별시 강남구 언주로130길 30,37.5147528,127.0381516
우장산에스케이뷰,서울특별시 강서구 우현로 26,37.5481674,126.8430656
자양한강현대,서울특별시 광진구 능동로 19,37.5330936,127.066837
안암삼익,서울특별시 성북구 안암로9길 30,37.5818996,127.0248881
대주피오레아파트,서울특별시 은평구 백련산로 6,37.5867673,126.9236175
신도림대림3차,서울특별시 구로구 신도림로 11,37.5070754,126.8783359
고척우성꿈동산,서울특별시 구로구 경인로47다길 34-7,37.5033206,126.8659412
창동대림,서울특별시 도봉구 노해로63길 75,37.6534648,127.045737
도봉극동아파트,서울 도봉구 도봉동 81-1호,37.6825214,127.0496186
당산성원아파트,서울특별시 영등포구 양평로 57,37.5346101,126.8991652
신정명지해드는터,서울특별시 양천구 신목로 43,37.5188309,126.8723424
개화산동부센트레빌,서울특별시 강서구 양천로3길 17,37.5732767,126.8061003
창동현대,서울특별시 도봉구 해등로16길 12,37.6557963,127.0408817
동부(돌타운)아파트,서울특별시 구로구 경인로 248-13,37.4971316,126.8487072
응암신동아,서울특별시 은평구 백련산로 127,37.5969983,126.923497
대방우정,서울특별시 동작구 여의대방로62길 23,37.5142635,126.9301341
역삼동부센트레빌,서울특별시 강남구 선릉로 423,37.5024446,127.0493831
우장산롯데3차,서울특별시 강서구 우장산로 92,37.5526254,126.8469523
목동극동늘푸른,서울특별시 양천구 목동중앙본로 10,37.5385437,126.8714519
삼정그린코아,서울특별시 강서구 공항대로75길 30,37.5476791,126.8751245
염창벽산늘푸른,서울특별시 강서구 양천로63길 52,37.5580776,126.8661662
마곡한숲대림아파트,서울특별시 강서구 방화대로50길 7,37.5771877,126.8175188
건영월드컵,서울특별시 마포구 성암로 41,37.5688306,126.9117669
현대멤피스아파트,서울특별시 서초구 방배로 249,37.4940815,126.9892632
송파동부센트레빌,서울특별시 송파구 송파대로37길 29,37.5004853,127.1092616
상계불암대림제2,서울특별시 노원구 덕릉로94가길 41,37.6639068,127.0779474
구로성호주상복합,서울특별시 구로구 가마산로 283,37.4969204,126.891368
관악산신도브래뉴,서울특별시 금천구 금하로24나길 48,37.4479487,126.9106575
잠원한신로얄,서울특별시 서초구 신반포로33길 64,37.5135903,127.009318
서서울삼성아파트,서울특별시 마포구 마포대로 262,37.5563617,126.9591333
현대강변,서울특별시 광진구 자양로3가길 43,37.5283974,127.0856424
대상,서울특별시 구로구 개봉로1길 170,37.4823243,126.8497887
행당브라운스톤,서울특별시 성동구 행당로 99,37.5589247,127.029416
시티파크2단지,서울특별시 용산구 서빙고로 31,37.5261643,126.9698845
미아2동경남아너스빌,서울특별시 강북구 삼양로74길 8,37.6287523,127.0191154
은평뉴타운상림마을6단지 제1아파트(8단지 푸르지오),서울특별시 은평구 진관4로 78-7,37.6499688,126.9328208
목동현대2차,서울특별시 양천구 목동동로 202,37.5234632,126.8717412
마곡청구아파트,서울특별시 강서구 양천로26길 103,37.5729601,126.8219282
월곡2SHville임대,서울특별시 성북구 회기로5길 142,37.5975546,127.0417743
신정대림,서울특별시 양천구 신목로5길 9,37.5178406,126.8740132
가락현대5차,서울특별시 송파구 오금로 370,37.4995774,127.1310772
신수현대,서울특별시 마포구 토정로 242,37.5430889,126.9370025
가산삼익아파트,서울특별시 금천구 두산로9길 56,37.4729051,126.8929933
망원휴먼빌,서울 마포구 망원동 509,37.5586582,126.898736
대치대우아이빌4차,서울특별시 강남구 선릉로90길 56,37.5051358,127.0538874
중계현대1차,서울특별시 노원구 중계로8길 106,37.6486998,127.0849795
도곡현대,서울특별시 강남구 도곡로18길 34,37.4892623,127.0387604
사당삼호그린,서울특별시 동작구 사당로2가길 188,37.4860661,126.9653347
염창한강동아(2차),서울특별시 강서구 양천로73길 80,37.5540431,126.8742629
영화 아이닉스,서울특별시 구로구 개봉로1길 188,37.4828153,126.8492712
방학동양크레오,서울특별시 도봉구 시루봉로 166,37.6645568,127.0302398
LG개포자이아파트,서울특별시 강남구 개포로109길 69,37.4962963,127.0766243
당산디오빌,서울특별시 영등포구 당산로 222,37.5332373,126.9022713
정릉우정에쉐르,서울특별시 성북구 북악산로 742-12,37.6001332,127.0107566
양평삼호,서울특별시 영등포구 선유로 172,37.528336,126.8927894
중계우성3차,서울특별시 노원구 덕릉로 613,37.6524246,127.0730455
신기목련,서울특별시 영등포구 신길로42가길 34,37.5083649,126.9150295
초안산신도브래뉴,서울특별시 도봉구 우이천로4라길 11-14,37.6334333,127.0425663
신림동부센트레빌,서울특별시 관악구 미성3길 16,37.4732059,126.9163206
치현마을동일스위트리버아파트,서울특별시 강서구 금낭화로24가길 28,37.579321,126.8158189
홍제태영으뜸,서울특별시 서대문구 세검정로3길 63,37.5935653,126.9466544
청담2차현대아파트,서울특별시 강남구 선릉로 748,37.5215554,127.0407663
신길우창,서울 영등포구 신길동 4501,37.4973055,126.9123051
자양우방리버파크,서울특별시 광진구 능동로4길 78,37.531148,127.0705581
독산현대,서울특별시 금천구 범안로17길 12,37.4674692,126.8950063
공릉건영장미,서울특별시 노원구 공릉로51길 14-1,37.6292718,127.0753286
상계코오롱,서울특별시 노원구 노원로26가길 25,37.6526723,127.0699176
오금삼성,서울특별시 송파구 문정로 197,37.4964677,127.1390705
금호어울림1차,서울 송파구 마천동 575,37.4982315,127.1548193
신월대림,서울특별시 양천구 오목로13길 7,37.52371,126.8448771
서초대우아이빌,서울특별시 서초구 서초대로58길 10,37.4942468,127.0175669
수명산롯데캐슬,서울특별시 양천구 월정로 303,37.5445455,126.8284979
강서센트레빌4차,서울특별시 강서구 남부순환로 11,37.5606079,126.808144
현대성우,서울특별시 강북구 삼양로24길 19,37.6170268,127.0221097
상계수락현대,서울특별시 노원구 동일로242길 95,37.6753305,127.0599531
봉천인헌,서울특별시 관악구 낙성대로15길 66,37.4680743,126.9625656
휘경동일하이빌,서울특별시 동대문구 장안벚꽃로5길 10,37.5818757,127.0734291
역삼한스빌아파트,서울특별시 강남구 도곡로3길 26,37.4919817,127.0330105
면목삼익,서울특별시 중랑구 동일로 501,37.5752236,127.0796017
삼호한숲,서울특별시 영등포구 선유로47길 34,37.5368785,126.89376
우리유앤미,서울특별시 구로구 구로동로43길 10,37.4966164,126.8817971
성수현대,서울특별시 성동구 서울숲길 25,37.548195,127.0409089
신정현대,서울특별시 양천구 신목로 23,37.5171463,126.8744771
청담래미안,서울특별시 강남구 학동로 405,37.5179137,127.0427658
브라운스톤금호아파트,서울특별시 성동구 매봉길 24,37.5468722,127.0154576
보문아남,서울특별시 성북구 보문사길 112,37.5812555,127.0173522
문래대원,서울특별시 영등포구 문래로4길 26,37.5186203,126.8827818
오류라인,서울특별시 구로구 경인로 230-13,37.4966587,126.8470682
성수현대그린,서울특별시 성동구 뚝섬로3길 6,37.5407018,127.0504495
양평한솔,서울특별시 영등포구 양평로30길 51,37.5444139,126.8878627
밤섬현대,서울특별시 마포구 신수로3길 19,37.5426551,126.9326689
대림성원,서울특별시 영등포구 대림로 256,37.5037835,126.8965839
대원그린아파트,서울특별시 도봉구 방학로 212-11,37.6628505,127.0281276
롯데캐슬천지인,서울특별시 종로구 종로 347,37.5738554,127.0161891
묵동신도1차,서울특별시 중랑구 공릉로13길 30,37.6168885,127.0775863
등촌태진아름,서울특별시 강서구 등촌로53길 39,37.5493953,126.8616805
성수우방2차,서울특별시 성동구 성수일로10길 3,37.5484064,127.051583
둔촌역청구아파트,서울특별시 강동구 풍성로 196,37.52945,127.1331875
등촌대림e편한세상,서울특별시 강서구 등촌로 137,37.5421283,126.8626523
정릉힐스테이트1차아파트,서울특별시 성북구 북악산로 831,37.6001991,127.0175261
방배아크로리버,서울특별시 서초구 방배중앙로 207-10,37.4978313,126.9844585
사당롯데캐슬,서울특별시 동작구 사당로27길 181,37.4901983,126.9714969
반포현대동궁,서울특별시 서초구 사평대로 154,37.5003957,127.0020963
목동금호1차,서울특별시 양천구 목동동로 258,37.5252791,126.8746695
천호한신,서울특별시 강동구 구천면로42길 16,37.5457708,127.1348466
방화신동아,서울특별시 강서구 방화대로37길 15,37.569926,126.8157168
상월곡우남,서울특별시 성북구 화랑로15길 4,37.6059521,127.0466414
신답극동아파트,서울특별시 동대문구 서울시립대로 5,37.5726992,127.0441344
신답경남아파트,서울특별시 동대문구 천호대로47길 62,37.5748075,127.0445899
보라매아카데미타워아파트,서울특별시 동작구 보라매로5가길 16,37.4913255,126.9241097
묵동한국,서울특별시 중랑구 중랑천로 332,37.6143473,127.0734985
화곡유림노르웨이숲,서울특별시 강서구 곰달래로 96,37.5301491,126.8434354
강변그대가리버뷰,서울특별시 강동구 올림픽로89길 58,37.5483376,127.1233659
명일현대,서울특별시 강동구 양재대로134길 87,37.5485038,127.1488477
천호중앙하이츠,서울특별시 강동구 구천면로41길 79,37.5472957,127.1302233
가락상아1차,서울특별시 송파구 오금로 405,37.4985637,127.1353505
후암미주,서울특별시 용산구 후암로 71-1,37.55185,126.9757889
신동아아파트,서울특별시 용산구 보광로 14,37.5258366,127.0020509
공덕삼성임대,서울특별시 마포구 마포대로 115-8,37.5480749,126.950904
송파호수임광,서울특별시 송파구 송파대로48길 29,37.5105889,127.1074518
신림금호타운1차,서울특별시 관악구 대학18길 9,37.4651363,126.9376896
번동삼성,서울특별시 강북구 도봉로98길 33,37.6414469,127.0318985
제기경동미주,서울특별시 동대문구 정릉천동로 80,37.5792417,127.0355
화곡미성,서울특별시 강서구 초록마을로 176,37.5360506,126.8447262
답십리대림,서울특별시 동대문구 답십리로60길 38,37.5706382,127.0634237
신사이랜드타운,서울특별시 은평구 은평터널로 121-6,37.5904992,126.904003
시흥베르빌,서울특별시 금천구 시흥대로77길 23,37.457587,126.897555
상계금호타운,서울특별시 노원구 한글비석로46나길 10,37.6672856,127.0688307
상계대림e-편한세상,서울특별시 노원구 동일로239길 68,37.6748543,127.0508626
롯데캐슬,서울특별시 양천구 신목로12길 22,37.5198784,126.874888
도곡삼성,서울특별시 강남구 남부순환로379길 14,37.4887551,127.0469594
세양청마루,서울특별시 동대문구 답십리로59길 7,37.5735797,127.065531
둔촌하이츠,서울특별시 강동구 명일로 113,37.5295514,127.1424221
개포우성9차,서울특별시 강남구 개포로 311,37.4848288,127.057256
천호금호,서울특별시 강동구 양재대로 1557,37.5448169,127.142214
자양경남,서울특별시 광진구 뚝섬로52길 71,37.5291422,127.0789282
현대비전21,서울특별시 강남구 언주로30길 10,37.4873651,127.0513325
신대림한솔솔파크,서울특별시 영등포구 도림천로 431,37.4873594,126.8995138
시흥성지,서울 금천구 시흥동 nan,37.4509225,126.8979308
문정푸르지오1차,서울특별시 송파구 문정로 55,37.4868865,127.1281123
월계흥화브라운빌,서울특별시 노원구 우이천로2나길 14,37.6316871,127.0439797
상계청암1단지,서울특별시 노원구 덕릉로112길 24,37.6661444,127.0801114
신내동성7차,서울특별시 중랑구 신내로14길 21,37.6063234,127.0975415
둔촌현대4차,서울특별시 강동구 진황도로61길 7,37.5299686,127.1441487
자양2차현대,서울특별시 광진구 뚝섬로34길 9,37.534323,127.070339
DMC두산위브,서울특별시 서대문구 증가로 200-8,37.5802688,126.9172378
신월삼정그린뷰,서울 양천구 신월동 남부순환로 69길 12,37.5228362,126.8385961
신림건영4차,서울특별시 관악구 신림로48길 17-20,37.4803869,126.9331042
쌍문청구,서울 도봉구 쌍문동 nan,37.659774,127.0343792
인왕산벽산아파트,서울특별시 서대문구 세무서길 106-12,37.5921958,126.948372
풍납신성노바빌,서울특별시 송파구 한가람로 468,37.5384921,127.1166573
길음뉴타운10단지,서울특별시 성북구 정릉로 307,37.6033174,127.0182647
돈암동일하이빌,서울특별시 성북구 보문로38길 11,37.5916299,127.0144138
냉천동부센트레빌,서울특별시 서대문구 독립문로14길 74,37.5663309,126.9598553
공릉삼익2차,서울특별시 노원구 공릉로34길 118,37.6260069,127.0806513
잠원현대,서울특별시 서초구 잠원로12길 4,37.518469,127.0127219
신사신성,서울특별시 은평구 증산로15길 67-7,37.5897887,126.9050321
휘경롯데낙천대,서울특별시 동대문구 외대역동로1길 24,37.5917499,127.063941
신촌금호,서울특별시 마포구 서강로9길 19,37.5528146,126.932068
잠원녹원한신,서울특별시 서초구 잠원로4길 34-11,37.5120919,127.0113336
길동신동아3차,서울 강동구 길동 43번지,37.541225,127.1481967
홍제현대그린,서울특별시 서대문구 세무서2길 64,37.5892439,126.9491411
망원2차대림,서울특별시 마포구 망원로1길 27,37.557296,126.8994031
구로신성미소지움,서울특별시 구로구 시흥대로161길 50,37.4797919,126.8967361
상계성림(미라보),서울특별시 노원구 덕릉로127길 25,37.6725714,127.0809553
목동부영그린타운2차,서울특별시 양천구 목동동로 401,37.5363537,126.8811222
청량리현대,서울특별시 동대문구 약령시로21길 30,37.5850545,127.0463246
등촌대동황토방,서울특별시 강서구 공항대로59길 103,37.5559295,126.8622572
서울숲아이파크,서울특별시 성동구 동일로 237,37.5525834,127.0688097
신반포한신19차,서울특별시 서초구 잠원로8길 20,37.5142264,127.0101762
홍제성원아파트,서울특별시 서대문구 모래내로 430,37.5887167,126.9494371
보광삼성리버빌,서울특별시 용산구 보광로5길 40,37.5243671,127.0008993
신내석탑,서울특별시 중랑구 용마산로125길 92,37.6037095,127.1011542
목동현대1차,서울특별시 양천구 목동동로 240,37.5259957,126.8727061
광장동금호베스트빌,서울특별시 광진구 광나루로 579,37.5437571,127.0940234
송파현대1차,서울특별시 송파구 오금로32길 42,37.5034908,127.1178187
동부이촌동우성,서울특별시 용산구 이촌로 193,37.5216674,126.9692144
창전현대홈타운,서울특별시 마포구 서강로 83,37.5507951,126.9318441
등촌삼성한사랑,서울특별시 강서구 양천로66길 6,37.5552044,126.863892
오동공원현대홈타운,서울특별시 강북구 오현로31길 89,37.6315389,127.035615
자양현대홈타운10차,서울특별시 광진구 뚝섬로34길 25-19,37.5334548,127.0705101
개봉거성푸르뫼2차아피트,서울특별시 구로구 고척로 82,37.5001509,126.8437766
고척삼익1단지,서울특별시 구로구 중앙로15길 132-17,37.5087458,126.8529887
독산진도3차,서울특별시 금천구 범안로17길 41,37.4683505,126.8932959
성수청구강변 ,서울특별시 성동구 둘레15길 7,37.5352521,127.0548812
한진해모로,서울특별시 중구 왕십리로39길 30,37.5631656,127.0267431
역삼삼익,서울특별시 강남구 논현로 218,37.4907653,127.0421463
본동한신휴플러스,서울특별시 동작구 매봉로 99,37.5091245,126.9493928
오류금강,서울특별시 구로구 서해안로34가길 18,37.4928901,126.8476508
묵동신안3차,서울특별시 중랑구 공릉로2라길 4,37.612484,127.0817861
한강로벽산메가트리움,서울특별시 용산구 한강대로43길 8,37.5321985,126.9697692
마장동 대성유니드 아파트,서울특별시 성동구 마장로37길 7,37.5668368,127.0386489
여의도금호리첸시아,서울특별시 영등포구 여의동로 213,37.5186433,126.9395985
개봉거성푸르뫼1차,서울특별시 구로구 고척로 85,37.5009472,126.8434989
염창극동,서울특별시 강서구 양천로69길 18,37.5529493,126.8712384
금호동롯데아파트,서울특별시 성동구 동호로 84,37.5469147,127.0170466
반포한신타워,서울특별시 서초구 잠원로3길 8,37.5112827,127.0064117
방화9단지,서울특별시 강서구 양천로11길 57,37.5745483,126.8071229
이촌왕궁,서울특별시 용산구 이촌로88길 15,37.5171632,126.9782605
중계신안,서울특별시 노원구 덕릉로 595,37.6513154,127.071975
행당두산,서울특별시 성동구 고산자로14길 40,37.5647183,127.0373381
낙성대현대,서울특별시 관악구 인헌길 68,37.4726586,126.965591
상계양우아파트,서울특별시 노원구 노원로30길 81,37.6565787,127.0710393
길음신안파크,서울특별시 성북구 길음로 141,37.614141,127.0159103
잠실한양3차,서울특별시 송파구 양재대로 1089,37.506177,127.1220009
한강삼익,서울특별시 용산구 이촌로 264,37.5184763,126.9760338
삼성풍림아파트1차,서울특별시 강남구 영동대로112길 15,37.5154299,127.0616804
구의삼성쉐르빌,서울특별시 광진구 구의강변로 106,37.5399785,127.0948021
자양7차현대홈타운,서울특별시 광진구 능동로4길 41,37.5329831,127.0697787
오류동부덕고개,서울특별시 구로구 경인로 248-14,37.4971219,126.8478369
마곡신안,서울특별시 강서구 양천로30길 123-9,37.5681327,126.8229252
화양현대,서울특별시 광진구 동일로24길 5,37.5445122,127.0658562
디엠씨현대,서울특별시 서대문구 응암로 33,37.5768106,126.9079507
월드컵현대,서울특별시 서대문구 수색로 154,37.5765928,126.9040715
광진트라팰리스,서울특별시 광진구 뚝섬로34길 67,37.5318975,127.0679584
장월SH-VILLE1단지,서울특별시 성북구 한천로101길 54,37.6224603,127.047843
번동한솔솔파크,서울특별시 강북구 오현로 180,37.6273663,127.0388516
북한산대창센시티,서울 은평구 불광동 71-16번지,37.6254055,126.9294384
해태보라매타워,서울특별시 관악구 보라매로3길 29,37.4911516,126.9250951
가락한신,서울특별시 송파구 송파대로 220,37.489685,127.1217367
면목대원칸타빌,서울특별시 중랑구 용마산로 285,37.5783275,127.0904636
뚝섬중앙하이츠빌,서울특별시 성동구 상원길 47,37.5478825,127.0481187
염창극동상록수,서울특별시 강서구 공항대로71길 31,37.5488684,126.8721249
잠원롯데캐슬갤럭시1차,서울특별시 서초구 잠원로14길 3,37.5201925,127.0164459
구로우방,서울특별시 구로구 구일로 154-17,37.4976775,126.8743148
거여우방,서울 송파구 거여동 송파구 거여동 356번지 거여우방아파트,37.492644,127.1422374
성내코오롱,서울특별시 강동구 천호대로168길 25,37.5343691,127.1323906
자양현대홈타운8차,서울특별시 광진구 뚝섬로36길 19,37.533512,127.0719554
월계대동,서울특별시 노원구 광운로 46,37.6218311,127.0607338
방학성원,서울특별시 도봉구 도당로6길 14-5,37.6618155,127.0356742
마곡한솔솔파크,서울특별시 강서구 양천로30길 77,37.5696666,126.8233243
상수두산위브,서울특별시 마포구 독막로18길 5,37.5470285,126.9242897
방화월드메르디앙,서울특별시 강서구 양천로1길 117,37.5746001,126.8105254
당산2차효성타운,서울특별시 영등포구 당산로42길 7,37.5310626,126.9006948
노원현대아파트,서울특별시 노원구 상계로3길 50,37.6587715,127.0636584
중계3벽산,서울특별시 노원구 덕릉로77길 5,37.654292,127.0735683
신도림현대,서울특별시 구로구 신도림로19길 16,37.511992,126.884309
신수성원,서울특별시 마포구 독막로28길 7,37.546851,126.9376295
우이대우,서울특별시 강북구 삼양로149길 33,37.6554406,127.0111527
신내영풍마드레빌,서울특별시 중랑구 용마산로129가길 41,37.6055942,127.1001416
남서울건영아파트,서울특별시 금천구 시흥대로59길 35,37.452828,126.8986129
이튼타워리버3차,서울특별시 광진구 능동로 18,37.5329945,127.0680706
번동한양,서울특별시 강북구 한천로109길 69,37.626473,127.0417145
개포우성8차,서울특별시 강남구 개포로 411,37.48811,127.062288
제기현대,서울특별시 동대문구 정릉천동로 90,37.5799573,127.0357839
정릉중앙하이츠,서울특별시 성북구 보국문로32길 53,37.6198025,127.0020417
우이동성원아파트,서울특별시 강북구 삼양로 658,37.6618442,127.0138641
목동대림2차,서울특별시 양천구 목동동로12길 23,37.523805,126.8746806
삼성한솔,서울특별시 강남구 학동로64길 7,37.5173908,127.0455212
번동기산그린,서울특별시 강북구 월계로37길 137,37.6274606,127.0435775
양평동양,서울특별시 영등포구 양평로30가길 15,37.5422865,126.8898114
정릉산장,서울특별시 성북구 보국문로 167,37.6167473,127.0021957
길동현대아파트,서울특별시 강동구 천호대로 1231,37.536591,127.1473459
가락우창,서울특별시 송파구 동남로24길 6,37.4995733,127.136295
쌍문경남,서울특별시 도봉구 도봉로129길 45-12,37.6548109,127.0351564
가락동부센트레빌,서울특별시 송파구 송파대로32길 33,37.4978882,127.1162993
서초한빛삼성,서울특별시 서초구 서초대로40길 72,37.487956,127.0079656
천호태영임대,서울특별시 강동구 천호대로 1055,37.5381545,127.130007
휘경롯데1차,서울특별시 동대문구 망우로 95,37.5910981,127.0633712
사당현대아파트,서울특별시 동작구 사당로17길 111,37.4883008,126.9702379
한강아파트,서울특별시 영등포구 영신로57길 5,37.5280856,126.9023584
면목신성은하수,서울특별시 중랑구 중랑천로 43,37.5889278,127.0729702
중계현대그린,서울특별시 노원구 중계로8길 39,37.6471623,127.0844122
문래현대1차,서울특별시 영등포구 문래로4길 20,37.5195252,126.8828222
사근중앙하이츠,서울특별시 성동구 사근동길 67,37.5618375,127.0485864
벽산타운3단지,서울특별시 금천구 탑골로 84,37.4534029,126.9176126
문래현대6차아파트,서울특별시 영등포구 선유서로 31,37.5184364,126.8838267
신정쌍용,서울특별시 양천구 신목로 9,37.5181035,126.8758354
자양현대5차,서울특별시 광진구 뚝섬로54길 74,37.5286059,127.0782918
문래국화,서울특별시 영등포구 도림로 464,37.5163791,126.8927664
청담대림,서울특별시 강남구 학동로77길 27,37.5205103,127.047858
정릉성원,서울특별시 성북구 정릉로21길 21,37.6065103,127.0083543
영등포두산위브,서울특별시 영등포구 신길로60나길 9,37.5143305,126.912262
신대방한성,서울특별시 동작구 여의대방로10길 13,37.4956195,126.9149472
경동윈츠리버,서울특별시 동작구 노량진로32길 156,37.5098847,126.9545986
구로새솔금호,서울특별시 구로구 공원로 35,37.4999584,126.8900268
구의현대7단지,서울특별시 광진구 구의강변로3가길 39,37.5368422,127.0909417
염창무학,서울특별시 강서구 양천로77길 45,37.5464825,127.0144609
고척경남2차,서울특별시 구로구 고척로52길 21,37.5043308,126.8567573
월계서광,서울특별시 노원구 마들로1길 44,37.6228503,127.0654107
상계우방,서울특별시 노원구 동일로230가길 15,37.6719833,127.0568379
목동부영그린타운3차,서울특별시 양천구 목동동로 411,37.536731,126.8822116
풍납미성,서울특별시 송파구 풍성로 14,37.5341924,127.1137637
우림루미아트1.2단지,서울특별시 노원구 동일로230가길 71,37.6745959,127.0561567
삼성래미안2차,서울특별시 강남구 선릉로130길 20,37.5161514,127.0434525
대치포스코더샵,서울특별시 강남구 삼성로 417,37.504007,127.0571385
동작금강KCC,서울특별시 동작구 동작대로39가길 55,37.4940729,126.9784252
목동e-편한세상,서울특별시 양천구 목동중앙로7길 32,37.5394083,126.8711933
길음뉴타운4단지임대,서울특별시 성북구 길음로 118,37.6128244,127.0178235
신내라이프미성,서울특별시 중랑구 용마산로129나길 101,37.6032755,127.0990429
무학현대,서울특별시 성동구 무학봉길 49,37.5611615,127.0278817
성내현대,서울특별시 강동구 천호옛12길 27,37.5352413,127.1265528
봉천신봉,서울특별시 관악구 양녕로6나길 18,37.4850226,126.9496234
염창태영송화,서울특별시 강서구 공항대로61길 60,37.553393,126.8672037
목동삼익,서울 양천구 목동 목동삼익아파트관리사무소,37.5228287,126.8766127
갈현현대1차,서울특별시 은평구 갈현로33길 24,37.6221584,126.9142876
대방2차현대,서울특별시 동작구 알마타길 58,37.5108264,126.9312764
신성둔촌미소지움2차,서울특별시 강동구 진황도로 212,37.5273324,127.1436872
청솔아파트8,서울특별시 노원구 노원로1가길 10,37.6232757,127.0860245
신정청구아파트,서울특별시 양천구 신목로2길 11,37.5198784,126.874888
상도1동대림,서울특별시 동작구 상도로60길 20,37.5007481,126.9512393
방화대림E편한세상,서울특별시 강서구 양천로6길 57,37.5700874,126.8081826
대원칸타빌,서울특별시 마포구 창전로2길 10,37.5481848,126.9335887
신림미성,서울특별시 관악구 조원로2길 13,37.4824017,126.9034424
거여현대2차,서울특별시 송파구 오금로61길 20,37.4946337,127.1464076
대림현대2차,서울특별시 영등포구 도신로4길 6,37.5025492,126.8941884
DMC진흥아파트,서울특별시 은평구 은평터널로 60,37.5854117,126.9002363
문래현대5차아파트,서울특별시 영등포구 선유서로9길 5,37.5176163,126.8831609
성산2차현대,서울특별시 마포구 성암로7길 3,37.5705091,126.9083577
길음뉴타운3단지임대,서울특별시 성북구 길음로13길 39,37.6085823,127.0177987
강일리버파크1단지,서울특별시 강동구 아리수로93가길 25,37.5668679,127.1720243
신월대성유니드,서울특별시 양천구 신월로15길 25,37.5198801,126.8405541
번동금호어울림,서울특별시 강북구 오현로31길 85-7,37.6306127,127.0354275
마곡서광,서울특별시 강서구 양천로27길 129,37.5793196,126.8193263
신내벽산,서울특별시 중랑구 용마산로125길 50,37.6032482,127.1002646
신도림우성3차,서울특별시 구로구 신도림로21길 25,37.5130829,126.8843198
염창롯데캐슬,서울특별시 강서구 공항대로65길 21,37.5507699,126.8683711
신길뉴타운한화꿈에그린,서울특별시 영등포구 신길로 119,37.5029726,126.9096185
오금현대백조,서울특별시 송파구 양재대로72길 15,37.5093927,127.1292736
번동신원,서울특별시 강북구 월계로37길 87-9,37.6259454,127.0433512
묵동신안1차,서울특별시 중랑구 공릉로2라길 15,37.6128576,127.0810011
구로다솜금호,서울특별시 구로구 새말로16길 70,37.5026206,126.8918736
마곡신안네트빌(1단지),서울특별시 강서구 양천로14길 37,37.5711243,126.8102088
삼선1SH-VILLE,서울특별시 성북구 보문로29다길 25-9,37.5848049,127.0140274
도봉유원아파트,서울특별시 도봉구 도봉로180길 50,37.6819705,127.0490413
마장신성미소지움,서울특별시 성동구 마장로39길 43,37.5689365,127.0437065
충무로진양,서울특별시 중구 퇴계로 217,37.5624272,126.9959355
쌍문현대3차,서울특별시 도봉구 우이천로38가길 32,37.6523384,127.0212039
잠원훼미리 아파트,서울특별시 서초구 잠원로 202-11,37.5192202,127.0146674
하계우방,서울특별시 노원구 공릉로58길 176,37.6375037,127.0772526
방학삼성래미안2단지,서울특별시 도봉구 도봉로150길 42,37.6650791,127.0458277
역삼래미안팬타빌,서울특별시 강남구 역삼로 309,37.5007064,127.0475511
월곡3SH-vill,서울특별시 성북구 오패산로 90,37.6120414,127.0379722
종로청계힐스테이트,서울특별시 종로구 숭인동길 21,37.5759616,127.0211388
한강타운,서울특별시 용산구 새창로8길 157,37.5356703,126.9496998
신사씨티,서울특별시 은평구 가좌로 391,37.6004103,126.9041738
상계수락한신,서울특별시 노원구 동일로242길 80,37.673639,127.0602025
염창금호,서울특별시 강서구 양천로 595,37.5563047,126.8651494
고척한효,서울특별시 구로구 중앙로5길 24,37.5015238,126.861314
구로현대상선,서울특별시 구로구 구일로10길 53,37.4960424,126.8750782
독립문파크빌,서울특별시 서대문구 통일로 279-75,37.5749642,126.9514854
여의대우트럼프월드2차,서울특별시 영등포구 여의동로 97,37.5174234,126.927057
일원청솔빌리지,서울특별시 강남구 광평로10길 50,37.4804807,127.0830785
현대뜨레비앙,서울특별시 종로구 돈화문로11가길 59,37.5751303,126.990057
응암우성,서울특별시 은평구 가좌로7나길 30,37.5840189,126.9175836
당산금호어울림,서울특별시 영등포구 국회대로37길 22,37.5284502,126.9012562
경남아너스빌,서울특별시 양천구 목동동로10길 16-6,37.5181266,126.8715119
대림서초리시온,서울특별시 서초구 서초중앙로22길 25,37.4934555,127.0152212
마일스디오빌,서울특별시 강남구 학동로 165,37.5138873,127.0289105
신대방경남교수,서울특별시 동작구 여의대방로10길 14,37.4960303,126.9136562
공릉동부,서울특별시 노원구 공릉로 206,37.6280819,127.0786137
월계삼창,서울특별시 노원구 광운로2나길 50,37.6184379,127.0602548
사당제일,서울특별시 동작구 사당로16다길 57,37.4829384,126.96955
경남아너스빌,서울특별시 구로구 오류로 65,37.4907209,126.8398933
구로우성(1동),서울특별시 구로구 구일로8길 31,37.4947097,126.8722377
신사한신휴플러스,서울특별시 은평구 갈현로1길 31,37.599227,126.9068354
방학명품ESA1단지,서울특별시 도봉구 마들로 657,37.6686013,127.045475
용산아크로타워,서울특별시 용산구 백범로90길 26,37.5369449,126.9685337
염창강변성원,서울특별시 강서구 양천로69길 65,37.5555042,126.8722555
공릉청솔9단지,서울특별시 노원구 노원로1길 21,37.6214628,127.0851534
신사라이프씨티,서울특별시 은평구 갈현로3다길 15,37.6023882,126.9053464
송파성지,서울특별시 송파구 송이로12길 11,37.5000876,127.1171288
삼익아파트2단지,서울특별시 구로구 중앙로15길 125,37.5074792,126.8528717
삼성동중앙하이츠빌리지,서울특별시 강남구 학동로68길 30,37.5160546,127.0462561
은평뉴타운상림마을13단지,서울특별시 은평구 진관4로 48-50,37.6474864,126.927883
응암금호,서울특별시 은평구 응암로 318,37.5992267,126.9222397
오금아남,서울특별시 송파구 성내천로6길 1-13,37.5028917,127.1361125
서초현대12차,서울특별시 서초구 효령로72길 14,37.4909646,127.0199792
홍은유원,서울특별시 서대문구 홍은중앙로1길 33,37.5975121,126.9446692
중계경남아너스빌,서울특별시 노원구 덕릉로94길 10,37.6620828,127.0770809
LG신도림자이,서울특별시 구로구 새말로18길 64,37.5035585,126.8921268
제기이수브라운스톤,서울특별시 동대문구 왕산로23길 89,37.5823765,127.0339745
창동금호어울림,서울특별시 도봉구 도봉로136가길 68,37.6564796,127.0417515
목동건영,서울특별시 양천구 목동중앙본로22길 63,37.5419755,126.8728085
서초삼성래미안,서울특별시 서초구 사임당로17길 116,37.4934608,127.0199579
상계극동늘푸른,서울특별시 노원구 동일로246길 39,37.6771802,127.057784
오류한신플러스타운,서울특별시 구로구 고척로 52,37.4983793,126.8410059
신구로자이,서울특별시 구로구 구로중앙로 134,37.5055429,126.8896095
우면코오롱,서울특별시 서초구 바우뫼로 53,37.472602,127.0276672
장안한신,서울 동대문구 장안동 서울 동대문구 장안2동 555-1,37.5795394,127.0719296
원효로강변삼성스위트,서울특별시 용산구 원효로 40,37.5340827,126.9485824
창동건영캐스빌,서울특별시 도봉구 우이천로20길 7,37.6413744,127.0341999
길음동부제2,서울특별시 성북구 숭인로2길 61,37.6094237,127.0254972
광장신동아파밀리에,서울특별시 광진구 아차산로 599,37.5467753,127.1043531
거여현대3차,서울특별시 송파구 거마로 41,37.4968972,127.1449982
방배래미안,서울특별시 서초구 방배선행길 2,37.472626,126.9844943
신림신도브래뉴,서울특별시 관악구 조원로16길 7,37.4838324,126.9109406
문래베어스타운,서울특별시 영등포구 선유서로 40,37.519134,126.8852409
삼성서광,서울특별시 강남구 선릉로130길 19,37.5170036,127.0425304
상계한일유엔아이,서울특별시 노원구 노원로28길 62,37.6541825,127.071075
명일삼환아파트,서울특별시 강동구 고덕로62길 29,37.5536984,127.1538354
유원강변,서울 동작구 본동 유원강변아파트,37.5150871,126.9509904
이촌동부센트레빌,서울특별시 용산구 이촌로 174,37.5211983,126.9665209
성북힐스테이트,서울특별시 성북구 동소문로44길 43,37.6065354,127.029003
여의도목화,서울특별시 영등포구 여의나루로 126,37.52594,126.932655
삼성쉐르빌1 아파트,서울특별시 양천구 목동동로 189,37.522674,126.8704315
양평현대2차,서울특별시 영등포구 선유동2로 29,37.5320347,126.8955806
중계현대2차(4동),서울특별시 노원구 한글비석로15길 51,37.6558928,127.0740064
자양대동,서울특별시 광진구 뚝섬로31길 20,37.5361407,127.0683929
이안용산프리미어,서울특별시 용산구 청파로 213,37.5386273,126.9703386
석관중앙하이츠,서울특별시 성북구 한천로76길 73,37.611111,127.0667057
쌍문극동,서울특별시 도봉구 노해로45길 26,37.6517698,127.0279261
방배임광3차,서울특별시 서초구 방배로2길 24-5,37.4762582,127.0027232
등촌라인,서울특별시 강서구 화곡로68길 33,37.5592064,126.8562941
청담현대3차,서울특별시 강남구 도산대로101길 29,37.5272417,127.0529125
방학벽산2차,서울특별시 도봉구 시루봉로5길 48,37.6588206,127.0252708
답십리대우,서울특별시 동대문구 답십리로41길 33,37.57342,127.0534582
마곡우림필유아파트,서울특별시 강서구 양천로28길 29,37.5717213,126.8212789
신길우성5차,서울특별시 영등포구 도신로 100,37.5067447,126.9035366
목동트윈빌,서울특별시 양천구 목동동로 339,37.5321823,126.8767997
도곡1차아이파크,서울 강남구 도곡동 nan,37.4920954,127.0431504
압구정미성1차,서울특별시 강남구 압구정로11길 17,37.5254652,127.0207224
자양로얄동아,서울특별시 광진구 뚝섬로52마길 56,37.528332,127.0810276
금호한신휴플러스,서울특별시 성동구 금호산길 27,37.5501696,127.0179816
신정세양청마루,서울특별시 양천구 목동남로2길 60-30,37.5070747,126.863636
갈현1단지e-편한세상,서울특별시 은평구 서오릉로21길 47,37.6121411,126.9063902
여의도수정,서울특별시 영등포구 국제금융로7길 1,37.5230829,126.9308314
자양한라,서울특별시 광진구 뚝섬로33길 20,37.5356629,127.0700492
우면동동고,서울특별시 서초구 바우뫼로7길 29,37.4713949,127.0237739
대학동현대(구신림9동),서울 관악구 신림동 255-189,37.4637542,126.9372307
수서동익,서울특별시 강남구 광평로39길 3,37.4856488,127.0964671
염창한마음삼성,서울특별시 강서구 양천로 637,37.554476,126.8682816
중계주공10단지,서울특별시 노원구 노원로22길 53,37.6481008,127.0733019
시흥현대빌라,서울특별시 금천구 시흥대로 53,37.4395084,126.9020409
중계양지대림2-2임대,서울특별시 노원구 덕릉로77길 27,37.6547418,127.072843
상계현대1차,서울특별시 노원구 동일로237길 41,37.6727905,127.0527596
성수동아그린,서울특별시 성동구 상원길 76,37.550919,127.0480309
구의대림아크로리버,서울특별시 광진구 구의강변로 64,37.5360563,127.0928472
목동우성,서울특별시 양천구 목동중앙로 143,37.5413035,126.8755033
홍은풍림아이원,서울특별시 서대문구 홍은중앙로 149,37.5972741,126.9378412
송파파인타운11단지,서울특별시 송파구 송파대로8길 58,37.4797913,127.133178
은평뉴타운상림마을2단지,서울특별시 은평구 진관4로 37,37.6466728,126.9265857
잠실현대,서울특별시 송파구 백제고분로18길 7,37.503992,127.0853196
방학한화성원,서울특별시 도봉구 방학로11길 10,37.6612354,127.0317924
금호1차푸르지오,서울특별시 성동구 금호산8길 5,37.5491419,127.021146
SH황학롯데캐슬베네치아,서울특별시 중구 청계천로 400,37.5711004,127.0222215
방화현대1차,서울특별시 강서구 방화대로37길 26,37.570387,126.8143038
롯데캐슬헤론,서울특별시 서초구 동광로1길 112,37.4967244,126.9845182
신림건영2차,서울 관악구 신림동 nan,37.4707892,126.9168875
당산한양,서울특별시 영등포구 영신로 193,37.5254625,126.8997511
용두두산위브,서울특별시 동대문구 정릉천동로 16,37.5734458,127.0362528
삼성롯데,서울특별시 강남구 학동로 432,37.5177728,127.0487
서울가든빌라,서울특별시 구로구 경인로 83,37.4923368,126.831053
돈암포스코더샵,서울특별시 성북구 아리랑로5길 85,37.5976901,127.0106855
한사랑2차삼성아파트(등촌동),서울 강서구 등촌동 634-3,37.5542766,126.8638745
마포쌍용황금,서울특별시 마포구 마포대로4라길 30,37.5371661,126.9456451
염창우성1차,서울특별시 강서구 양천로67길 77,37.5555744,126.8703134
효성아파트,서울특별시 노원구 화랑로 556,37.6206867,127.0886787
사당경남아너스빌,서울특별시 동작구 사당로9가길 82,37.4882464,126.9678137
구로보광,서울특별시 구로구 가마산로 231,37.4952976,126.8852794
독산신도브래뉴,서울 금천구 독산동 955,37.477408,126.8999857
녹번JR아파트,서울특별시 은평구 통일로 586-19,37.6000878,126.937924
마곡푸르지오,서울특별시 강서구 방화대로34길 88,37.5700345,126.8217091
산업인,서울특별시 구로구 경인로47다길 43,37.5044786,126.8669946
공릉신도1차,서울특별시 노원구 동일로191가길 59,37.6275959,127.0700592
면목두산2.3차,서울특별시 중랑구 면목로37길 58,37.5801261,127.0829987
월계대우아파트,서울특별시 노원구 초안산로5길 22,37.6332539,127.0513553
구로우성,서울특별시 구로구 공원로6가길 67,37.5039735,126.8890278
방배래미안타워,서울특별시 서초구 남부순환로 2183,37.4751718,126.9900534
동소문동송산,서울특별시 성북구 동소문로3길 101,37.5924122,127.0104788
도림동아에코빌,서울특별시 영등포구 도림로 365,37.5091679,126.8987346
방학거성학마을,서울특별시 도봉구 도당로 116,37.6665384,127.0396369
신반포청구,서울특별시 서초구 신반포로33길 66,37.5142848,127.0084378
상계한신3차,서울특별시 노원구 한글비석로46가길 34,37.6662959,127.0675578
도봉서울가든,서울특별시 도봉구 도봉산길 35,37.6868254,127.0415817
염창신동아,서울특별시 강서구 양천로67길 32,37.5551935,126.869209
래미안당산1차아파트,서울특별시 영등포구 당산로54길 11,37.5343799,126.9059115
도곡경남,서울특별시 강남구 논현로 209,37.4886314,127.0408208
성내성안청구,서울특별시 강동구 풍성로 114-1,37.5317809,127.1241393
염창관음삼성,서울특별시 강서구 양천로 656,37.5525192,126.8694898
장안삼성쉐르빌,서울특별시 동대문구 장한로 119,37.5716753,127.0698761
하월곡샹그레빌,서울특별시 동대문구 회기로5길 100,37.5965132,127.0414399
이문삼익아파트,서울특별시 동대문구 한천로55길 9,37.5959326,127.067574
목동2차삼성래미안,서울특별시 양천구 목동남로4길 81,37.5104913,126.8682994
방화한진로즈힐,서울특별시 강서구 양천로24가길 59,37.5714296,126.8133457
구의강변우성,서울특별시 광진구 구의강변로 42,37.5358159,127.0933387
둔촌프라자,서울특별시 강동구 천호대로 1240,37.535417,127.1482561
한강우성아파트,서울특별시 광진구 능동로1길 15,37.532579,127.0657325
안암대광,서울특별시 성북구 안암로9나길 14,37.5847251,127.0217182
정릉힐스테이트,서울특별시 성북구 정릉로 292,37.60284,127.0155119
고척동아한신,서울특별시 구로구 중앙로6길 17,37.5006992,126.8656221
중림삼성래미안아파트,서울특별시 중구 중림로4길 41,37.5573531,126.9643574
염창태진한솔,서울특별시 강서구 공항대로71길 54,37.5488942,126.874488
대조삼성타운,서울특별시 은평구 서오릉로 94,37.609112,126.9217449
군자일성파크,서울특별시 광진구 군자로12길 46,37.551275,127.0726402
둔촌신동아,서울특별시 강동구 양재대로96길 79,37.529157,127.1417216
상계대동아파트,서울특별시 노원구 상계로26길 20,37.6573591,127.0712567
DMC래미안클라시스,서울특별시 서대문구 증가로 191,37.5786616,126.9160723
가양한보구암,서울특별시 강서구 허준로 76,37.5681118,126.8489731
강변아파트,서울특별시 서초구 잠원로 166-17,37.5178181,127.0122486
전농동아,서울특별시 동대문구 서울시립대로 31,37.5749667,127.0458375
여의도은하,서울특별시 영등포구 63로 7,37.5187571,126.9352172
광장삼성12차,서울특별시 광진구 아차산로 544,37.5426383,127.1020927
당산유원제일1차,서울특별시 영등포구 국회대로29길 13,37.530191,126.8955412
여의도삼익,서울특별시 영등포구 국제금융로 109,37.5198261,126.9343703
방학4단지신동아,서울특별시 도봉구 방학로 200,37.6628212,127.0296648
신정5차현대,서울특별시 양천구 신정로 300,37.5123066,126.8546141
응암푸르지오,서울특별시 은평구 백련산로 146,37.597442,126.9261538
신도림대림5차e-편한세상,서울특별시 구로구 신도림로 32,37.5067071,126.8811909
DMC아이파크,서울특별시 서대문구 거북골로14길 32,37.5757029,126.9141298
공릉우성,서울특별시 노원구 동일로198길 24,37.6285696,127.0727424
잠실더샵스타파크,서울특별시 송파구 올림픽로35가길 10,37.5169868,127.1023024
방배대우효령,서울특별시 서초구 효령로 84,37.4797613,126.9936334
대치쌍용2차,서울특별시 강남구 영동대로 220,37.4996197,127.0704457
갈현현대아파트,서울특별시 은평구 서오릉로21길 36,37.6129617,126.905638
신공덕3차삼성래미안,서울특별시 마포구 만리재로 60,37.5454825,126.9569018
서교동대우미래사랑,서울특별시 마포구 월드컵북로5나길 18,37.5574299,126.9167558
문래공원한신,서울특별시 영등포구 문래로20길 14,37.5175814,126.8930031
마장동금호어울림,서울특별시 성동구 마조로 57,37.562934,127.041089
동부아파트,서울특별시 중랑구 신내로7가길 31,37.6020644,127.093838
신길경남,서울특별시 영등포구 영등포로 351,37.5158124,126.9183651
풍림아이원플러스,서울특별시 서초구 효령로77길 14,37.4903649,127.029525
개봉삼호아파트,서울특별시 구로구 남부순환로95길 16,37.4943419,126.8572709
녹번대림,서울특별시 은평구 통일로 590,37.6001439,126.9370209
한남동리첸시아,서울특별시 용산구 한남대로 60,37.5345031,127.0079791
청량리홍릉동부,서울특별시 동대문구 홍릉로10길 48,37.5861654,127.04603
목동금호어울림,서울특별시 양천구 목동중앙서로 37,37.5336997,126.8678104
개봉영화,서울특별시 구로구 경인로40길 11,37.4961973,126.8600001
이문중앙하이츠빌,서울특별시 동대문구 외대역동로 101,37.5964835,127.0646356
양평성원,서울특별시 영등포구 양평로17길 36,37.5343115,126.8934401
휘경베스트빌현대,서울특별시 동대문구 장안벚꽃로5길 19,37.58168,127.0742104
서울숲대림아파트,서울특별시 성동구 뚝섬로 311,37.5421369,127.0452696
신림쌍용,서울특별시 관악구 미성길 122,37.472164,126.9117664
여의도공작,서울특별시 영등포구 여의대로6길 17,37.5265231,126.9298286
장위참누리,서울특별시 성북구 한천로101길 18,37.6231937,127.0494663
서울대입구아이원 (1560-61),서울특별시 관악구 청룡길 78,37.4787044,126.9455509
자양동삼성아파트,서울특별시 광진구 자양번영로3길 65,37.5324954,127.0715987
상봉우정,서울특별시 중랑구 상봉중앙로1다길 21,37.5996773,127.0886359
서울숲리버그린동아,서울특별시 성동구 고산자로4길 34,37.5530787,127.0372695
여의도진주,서울특별시 영등포구 국제금융로 108-6,37.5185166,126.9329842
신공덕삼성1차,서울특별시 마포구 백범로37길 12,37.5434094,126.9558671
대림한신2차,서울특별시 영등포구 디지털로69길 16,37.4947769,126.9043881
성수한진타운,서울특별시 성동구 뚝섬로 312,37.541117,127.0453053
송파미성,서울특별시 송파구 오금로32길 10,37.5060284,127.1192987
오류푸르지오,서울특별시 구로구 오류로8길 11,37.491628,126.8415352
하계학여울청구B,서울특별시 노원구 한글비석로 6,37.6326446,127.0645889
광장동 광나루현대,서울특별시 광진구 아차산로76길 31,37.5471414,127.108811
신사현대2차,서울특별시 은평구 가좌로 344,37.5979944,126.9069618
번동솔그린,서울특별시 강북구 한천로109길 83,37.6261832,127.0393754
대우월드마크용산,서울특별시 용산구 한강대로 211,37.5371896,126.9729911
문래삼환,서울특별시 영등포구 도림로143길 30,37.5137751,126.889503
문래두산위브,서울특별시 영등포구 선유로9나길 8,37.5168776,126.8858207
신길삼성,서울특별시 영등포구 여의대방로 45,37.4963711,126.9112059
삼성홍실,서울특별시 강남구 영동대로128길 15,37.5199747,127.0596516
방배2차현대홈타운,서울특별시 서초구 서초대로1길 34,37.4901591,126.9839318
현대리버빌2차아파트,서울특별시 송파구 풍성로24길 42,37.5321466,127.1168432
봉천은천2단지,서울특별시 관악구 인헌12길 46-1,37.4699879,126.964559
남현우림루미아트,서울특별시 관악구 남현길 91,37.4726423,126.9754499
상계신동아,서울특별시 노원구 한글비석로52길 66,37.6674029,127.0675315
천호태영,서울특별시 강동구 천호대로 1055,37.5381545,127.130007
전농동신성미소지움아파트,서울특별시 동대문구 서울시립대로 75,37.5783111,127.0485695
쌍문금호2차,서울특별시 도봉구 해등로 241-14,37.6569631,127.0290465
신길건영,서울특별시 영등포구 도림로 313,37.5042671,126.9009904
면목경남아너스빌,서울특별시 중랑구 답십리로75길 73,37.5754912,127.0804639
방화1단지(장미),서울특별시 강서구 양천로 125,37.5742114,126.8175777
양평삼성래미안,서울특별시 영등포구 영등포로3길 9,37.5244017,126.882579
상도쌍용,서울특별시 동작구 상도로 107,37.5015468,126.9316464
성수동아,서울특별시 성동구 왕십리로 80-1,37.5442259,127.0454954
홍은풍림2차,서울특별시 서대문구 세검정로1길 35,37.5932796,126.943037
문래남성,서울특별시 영등포구 경인로77길 21,37.5126219,126.8915407
문래현대2차,서울특별시 영등포구 문래로4길 6,37.520444,126.882871
역삼우성,서울특별시 강남구 남부순환로363길 49,37.488203,127.0371243
신정푸른마을4단지,서울특별시 양천구 신정로7길 60-7,37.5133188,126.8390636
고척한일유앤아이,서울특별시 구로구 중앙로15길 151,37.5080441,126.8510935
신반포 한신 252627차 아파트,서울특별시 서초구 잠원로8길 3,37.5148608,127.0093473
마포신촌삼익아파트,서울특별시 마포구 신수로 105,37.5512309,126.9355656
신정e-편한세상,서울특별시 양천구 신정로13길 38,37.5125102,126.8431245
고척동센츄리,서울특별시 구로구 중앙로12길 12,37.5044346,126.8622842
삼성청담공원,서울특별시 강남구 도산대로96길 39,37.5224412,127.0505804
당산2차삼성,서울특별시 영등포구 당산로36길 12,37.528049,126.8980001
관악푸르지오제2단지,서울특별시 관악구 청림5길 28,37.4896116,126.9603002
래미안 서초스위트 아파트,서울특별시 서초구 서운로 221,37.5020921,127.0199915
잠실한솔,서울특별시 송파구 백제고분로 348,37.5036204,127.1046578
신반포한신16차,서울특별시 서초구 잠원로 157,37.5168996,127.0096069
상계한신,서울특별시 노원구 동일로230길 63,37.6733227,127.0596359
신구로현대,서울특별시 구로구 구로중앙로18길 68,37.4961263,126.8930516
마곡수명산파크6단지,서울특별시 강서구 수명로2길 63,37.5503051,126.8257712
중계대림벽산,서울특별시 노원구 한글비석로8길 20,37.6472272,127.0772878
당산상아,서울 영등포구 당산동5가 4-13,37.5300879,126.903625
이태원남산대림,서울특별시 용산구 녹사평대로 254,37.5407149,126.9888481
아이파크상도동,서울특별시 동작구 장승배기로 26,37.5007619,126.9427071
마장SH-vill임대,서울특별시 성동구 마조로15가길 23,37.5645087,127.0400784
중계성원1차,서울특별시 노원구 덕릉로71길 5,37.6501711,127.0700519
정릉푸르지오,서울특별시 성북구 보국문로 19,37.6062418,127.0100372
용산CJ나인파크,서울특별시 용산구 백범로90다길 12,37.5360982,126.9691777
신대림자이,서울특별시 영등포구 시흥대로173길 13,37.4865541,126.902438
개포우성3차,서울특별시 강남구 개포로 307,37.4838941,127.0559898
자양우성2차,서울특별시 광진구 뚝섬로 576,37.533336,127.0735348
정릉스카이쌍용,서울특별시 성북구 북악산로 828,37.5992583,127.0170717
롯데캐슬엠파이어,서울특별시 영등포구 의사당대로 127,37.5202486,126.9263879
방화동부센트레빌,서울 강서구 방화동 동부센트레빌아파트,37.5747161,126.8144739
쌍문삼성래미안,서울특별시 도봉구 우이천로 328,37.6470609,127.0280022
서초우성5차아파트,서울특별시 서초구 서초대로74길 30,37.4948555,127.0266736
방배삼익,서울특별시 서초구 효령로34길 79,37.4789582,127.0015573
쌍문한양7차,서울특별시 도봉구 해등로25길 41,37.6560261,127.0338661
신도림우성12차,서울특별시 구로구 신도림로 110,37.5114702,126.8859402
신내건영1차,서울특별시 중랑구 봉화산로48길 62,37.6039877,127.0934783
동소문한신휴플러스,서울특별시 성북구 동소문로13길 47,37.5952789,127.0140837
응봉대림2차,서울특별시 성동구 독서당로 431,37.552326,127.0321202
명일중앙하이츠아파트,서울특별시 강동구 구천면로 557,37.5507165,127.1598371
당산유원제일2차,서울특별시 영등포구 선유동2로 56,37.5333119,126.8984233
월계6-1초안,서울 노원구 월계동 923번지,37.6329918,127.0443052
강일리버파크8단지,서울특별시 강동구 아리수로94길 72,37.5607222,127.1762695
신도림대림7차e-편한세상,서울특별시 구로구 신도림로 56-13,37.5083184,126.882657
우면대림,서울특별시 서초구 바우뫼로7길 51,37.4728411,127.0230189
방배디오빌,서울특별시 서초구 서초대로 17,37.4860524,126.9842059
반포한신서래,서울특별시 서초구 사평대로28길 31,37.4991043,127.0008946
쌍문한양5차,서울특별시 도봉구 해등로25길 36,37.6560324,127.0321457
가양우성,서울특별시 강서구 양천로 489,37.5623512,126.8542542
하왕극동미라주,서울특별시 성동구 난계로 73,37.5585166,127.0233607
아카데미스위트,서울 강남구 도곡동 467-7,37.4885971,127.052083
풍납극동,서울특별시 송파구 올림픽로45길 11,37.5266148,127.1167332
브라운스톤상도,서울특별시 동작구 상도로31길 19,37.5059773,126.9437593
개포현대1차,서울특별시 강남구 개포로 303,37.4826743,127.0544301
화곡대림아파트,서울특별시 강서구 월정로 160,37.5336644,126.8373402
풍납쌍용,서울특별시 송파구 올림픽로47길 9,37.527262,127.1177196
양평벽산,서울특별시 영등포구 선유서로21길 19,37.5221895,126.883568
암사한강현대,서울특별시 강동구 올림픽로104길 42,37.5552111,127.1319403
강변힐스테이트,서울특별시 강서구 양천로75길 19,37.5509233,126.8740903
방배임광12차,서울특별시 서초구 방배로 14,37.4770722,127.0025259
목동삼성래미안,서울특별시 양천구 신목로 7,37.5157638,126.8763711
상계한신1차,서울특별시 노원구 한글비석로46가길 16,37.666427,127.0696148
상계임광아파트관리사무소,서울특별시 노원구 노원로 569,37.6606639,127.0563489
신길한성,서울특별시 영등포구 가마산로 575,37.5047193,126.9188187
DMC마포청구아파트,서울특별시 마포구 성암로11길 60,37.5740861,126.9020362
구의현대6단지,서울 광진구 구의동 610,37.5384356,127.0948893
용산시티파크1단지,서울특별시 용산구 서빙고로 35,37.5251636,126.9694981
염창한화꿈에그린,서울특별시 강서구 공항대로75길 17,37.5481893,126.8731525
효성주얼리시티아파트,서울특별시 종로구 종로 183,37.571436,126.9983959
흑석동양,서울특별시 동작구 서달로1길 17,37.5004204,126.9585765
오류삼천리,서울특별시 구로구 경인로8길 75,37.4927408,126.8399091
목동2차성원아파트,서울특별시 양천구 목동중앙남로 100,37.5427613,126.8634813
보라매파크빌,서울특별시 동작구 여의대방로10길 59,37.4944124,126.9155388
중계금호,서울특별시 노원구 중계로 140,37.6470308,127.081287
창동상아2차,서울특별시 도봉구 노해로63가길 7,37.6531689,127.0441299
신대방경남아너스빌,서울특별시 동작구 신대방길 85,37.489496,126.9085431
구로럭키,서울특별시 구로구 도림로 107,37.4920766,126.8940158
롯데캐슬갤럭시2차,서울특별시 서초구 잠원로14길 23,37.5190505,127.0159475
DMC우방,서울특별시 은평구 증산로3길 26-1,37.5818742,126.9029992
등촌서광,서울특별시 강서구 공항대로45길 68-6,37.5578978,126.8574637
해모로,서울특별시 강북구 오현로 156,37.62658,127.0375124
래미안용강아파트,서울특별시 마포구 큰우물로 28,37.543435,126.9413984
마장삼성,서울특별시 성동구 마장로 271,37.5661691,127.0402374
래미안상도2차,서울특별시 동작구 상도로55길 47,37.5018787,126.9511199
보문아이파크,서울특별시 성북구 지봉로21길 19,37.5855901,127.0166232
공릉태릉우성,서울특별시 노원구 노원로 29,37.6245525,127.0854776
정릉중앙하이츠빌1단지,서울특별시 성북구 아리랑로19길 60,37.6028813,127.0101777
응봉신동아,서울특별시 성동구 독서당로 375,37.5504195,127.0295611
가락미륭아파트,서울특별시 송파구 동남로11길 4,37.4937996,127.1285974
대림우성,서울특별시 영등포구 도림로 187,37.4964591,126.9009261
용두롯데캐슬피렌체,서울특별시 동대문구 정릉천동로 58,37.5771878,127.0360455
명륜아남1차,서울특별시 종로구 창경궁로 265,37.5859111,126.9992985
공릉화랑타운,서울특별시 노원구 화랑로51길 17,37.6238712,127.0879394
상암월드컵파크5단지,서울특별시 마포구 상암산로1길 52,37.5806443,126.8852677
상계1차중앙하이츠,서울특별시 노원구 노원로28길 15,37.6537485,127.0689101
삼선코오롱아파트,서울특별시 성북구 삼선교로23길 23,37.5904694,127.0132547
광장현대9차,서울특별시 광진구 아차산로69길 19,37.542369,127.0976662
역삼개나리래미안,서울특별시 강남구 역삼로 306,37.4983263,127.0457475
자양현대3차,서울특별시 광진구 뚝섬로58길 101,37.5285844,127.0834571
신월신안약수,서울특별시 양천구 중앙로29길 55,37.5165172,126.8474503
용마금호타운,서울특별시 중랑구 용마산로 348,37.582864,127.0943633
신당삼성임대,서울특별시 중구 청구로1길 23,37.5580944,127.0179323
고척우성현대,서울특별시 구로구 중앙로1길 18-19,37.4988578,126.8627819
신정푸른마을3단지,서울특별시 양천구 신정로11길 63,37.5114679,126.8368562
래미안서초유니빌,서울특별시 서초구 서초중앙로 26,37.4847031,127.016979
풍납시티극동,서울특별시 송파구 한가람로 478,37.5396031,127.1182132
구로두산제2,서울특별시 구로구 도림로 59,37.4885905,126.8889122
강일리버파크2단지,서울특별시 강동구 아리수로97길 68,37.5687308,127.1766546
가락대림아파트,서울특별시 송파구 송이로 88,37.499639,127.1188815
사당롯데캐슬샤인,서울특별시 동작구 사당로27길 190,37.4907263,126.9724822
자양한양,서울특별시 광진구 구의강변로 11,37.5314488,127.0910116
벽산블루밍1단지2단지,서울특별시 양천구 신정로13길 50,37.513351,126.8425224
새절역현대아파트,서울특별시 은평구 은평터널로 164,37.5935228,126.9086256
등촌8단지주공아파트,서울특별시 강서구 공항대로43길 104,37.5612871,126.8513767
휘경동일스위트리버,서울특별시 동대문구 한천로 300,37.5874125,127.0686947
롯데캐슬아이비,서울특별시 영등포구 국제금융로 86,37.5202096,126.9317611
송정건영,서울특별시 성동구 동일로 263,37.5559647,127.0709815
서강해모로,서울특별시 마포구 토정로 167,37.5462183,126.9302387
고척청구아파트,서울특별시 구로구 중앙로6길 5-15,37.5015386,126.8638405
고덕현대,서울특별시 강동구 고덕로61길 37,37.5565058,127.1521009
광장극동1차,서울 광진구 광장동 218-1,37.5431884,127.1042868
상계동양메이저,서울특별시 노원구 상계로5길 12,37.6578567,127.0640146
도봉래미안,서울특별시 도봉구 도봉로170길 40,37.6796389,127.0462651
중계한화꿈에그린,서울특별시 노원구 중계로8길 29,37.6474408,127.0828152
창동동아그린,서울특별시 도봉구 노해로63다길 34,37.654516,127.0464538
아이파크삼성동,서울특별시 강남구 영동대로 640,37.5181937,127.0591223
한강,서울특별시 서초구 잠원로 213-10,37.5214482,127.0155924
신도림현대,서울특별시 구로구 새말로9길 45,37.5049671,126.886015
신반포7차,서울특별시 서초구 잠원로 88,37.5124574,127.0079051
공릉동신,서울특별시 노원구 공릉로 213,37.6280155,127.0768621
중계현대6차,서울특별시 노원구 중계로8길 20,37.6455756,127.0824304
석관코오롱,서울특별시 성북구 한천로 509,37.6063529,127.0657663
구로한일유엔아이,서울특별시 구로구 가마산로 87,37.4863381,126.8756078
염창강변한솔솔파크,서울특별시 강서구 양천로63길 38,37.5562105,126.8671836
송파파인타운5단지,서울특별시 송파구 충민로4길 5,37.4801394,127.1299462
장안현대,서울특별시 동대문구 한천로 224,37.5812961,127.0688912
토정한강삼성,서울특별시 마포구 토정로32길 11,37.5394266,126.9413292
창동신도브래뉴,서울특별시 도봉구 도봉로136나길 40,37.6563222,127.0444705
등촌동성,서울특별시 강서구 강서로68길 108,37.5640797,126.8459121
월계청백3단지,서울특별시 노원구 월계로45가길 89,37.6318379,127.0502719
하왕금호베스트빌,서울특별시 성동구 난계로 114-31,37.5612955,127.0254969
신공덕2차삼성래미안,서울특별시 마포구 만리재로 74,37.5464428,126.9579942
개포4차우성,서울특별시 강남구 언주로 117,37.4857034,127.0501105
신성둔촌미소지움1차,서울특별시 강동구 명일로 102,37.5278063,127.1428107
돈암풍림,서울특별시 성북구 북악산로 913,37.5953816,127.023656
당산진로,서울특별시 영등포구 당산로 68,37.5206537,126.8963598
신당푸르지오,서울특별시 중구 다산로36길 110,37.5592169,127.0195121
방화동 개화아파트,서울특별시 강서구 금낭화로 167,37.5809671,126.8125423
전농삼성,서울특별시 동대문구 전농로 192,37.5819426,127.0556161
자양우성3차,서울특별시 광진구 뚝섬로35길 32,37.5359897,127.0720703
수색대림한숲타운제2,서울특별시 은평구 은평터널로 66,37.5863961,126.9013422
상계현대2차,서울특별시 노원구 동일로231길 86,37.6722699,127.0504092
코오롱하늘채,서울특별시 마포구 연남로 52,37.5648197,126.9201576
상봉건영캐스빌,서울특별시 중랑구 상봉중앙로8길 76,37.6024565,127.0911038
방배우성,서울특별시 서초구 방배선행길 1,37.4744136,126.9825806
동진신안,서울특별시 노원구 중계로 195,37.6497726,127.0782043
당산동부센트레빌,서울특별시 영등포구 영신로 191,37.5244575,126.900447
신정푸른마을2단지,서울특별시 양천구 신정로7길 76,37.5134521,126.8354272
상계한신2차,서울특별시 노원구 한글비석로48길 6,37.6647819,127.0680666
상계불암현대(임대),서울특별시 노원구 덕릉로118길 27,37.6681544,127.0804264
화곡중앙하이츠,서울특별시 강서구 강서로17가길 46,37.5355465,126.8437889
홍제삼성래미안,서울특별시 서대문구 통일로 319,37.5784484,126.9508555
구산경남아너스빌,서울특별시 은평구 갈현로11길 46,37.6055438,126.9054804
방학삼익세라믹,서울특별시 도봉구 도당로 41,37.6611543,127.0340669
대치우성1차아파트,서울특별시 강남구 영동대로 230,37.5002345,127.0691055
대림3동현대아파트,서울특별시 영등포구 도신로4길 14,37.5023194,126.8954185
신길우성4차,서울특별시 영등포구 영등포로64길 11,37.5142647,126.9164533
신길우성3차아파트,서울특별시 영등포구 대방천로14길 32,37.4972821,126.9087501
마포중동현대,서울특별시 마포구 성암로 91,37.5711515,126.9068961
본동삼성래미안아파트,서울특별시 동작구 매봉로 123,37.5099892,126.9495123
동아효성아파트(거여2단지),서울특별시 송파구 양산로8길 24,37.4903349,127.1462382
삼성 상아2차아파트,서울 강남구 삼성동 19-4번지,37.5175999,127.0500484
중계삼성,서울특별시 노원구 중계로14나길 25,37.6491475,127.0827049
신내동성4차,서울특별시 중랑구 봉화산로 216,37.6067266,127.0964595
천호우성,서울특별시 강동구 구천면로 366,37.549769,127.1388427
마곡벽산,서울특별시 강서구 양천로47길 118,37.5757344,126.8378355
한신무학,서울특별시 성동구 왕십리로31나길 22,37.5623584,127.0283658
방이대림가락,서울특별시 송파구 양재대로 1109,37.507175,127.1241052
마포현대아파트,서울특별시 마포구 마포대로11길 84,37.549767,126.9496256
당산효성1차,서울특별시 영등포구 당산로42길 13,37.5307189,126.9020034
미아동부센트레빌,서울특별시 강북구 숭인로7가길 37,37.6136824,127.0257283
사당휴먼시아,서울특별시 동작구 사당로16길 96,37.4790915,126.9702595
대림코오롱,서울특별시 영등포구 도영로 2-5,37.5069364,126.8949211
상암월드컵파크6단지,서울특별시 마포구 상암산로1길 57,37.5798306,126.8842686
월계풍림아이원,서울특별시 노원구 화랑로47길 38,37.6166071,127.0656375
신월신안파크,서울특별시 양천구 지양로15길 20,37.5233774,126.8295859
양천벽산블루밍,서울특별시 양천구 월정로9길 17,37.5243645,126.8394482
상계수락파크빌,서울특별시 노원구 동일로248길 16,37.6694182,127.0778213
대방성원,서울특별시 동작구 여의대방로44길 9,37.5094454,126.9256289
홍은극동,서울특별시 서대문구 포방터10길 33,37.6030233,126.9509978
등촌미주진로,서울특별시 강서구 공항대로 351-21,37.5598381,126.8470141
방화청솔3단지,서울특별시 강서구 방화대로47길 55,37.5757615,126.8127261
구로한신1차,서울 구로구 구로동 642-9,37.4963839,126.8737607
암사삼성광나루,서울특별시 강동구 상암로3길 77,37.5540433,127.1271166
휘경동양1.2차,서울특별시 동대문구 망우로 135,37.5926669,127.0675572
이문대우1차,서울특별시 동대문구 한천로58길 139,37.6025608,127.0698249
도곡대림아크로빌,서울특별시 강남구 언주로30길 13,37.4881225,127.0510858
상계한양,서울특별시 노원구 동일로216길 92,37.6520108,127.066935
신림건영1차,서울특별시 관악구 문성로 74,37.4763359,126.9123312
수락산벨리체아파트,서울특별시 노원구 동일로250길 18,37.6816146,127.0565963
가락2차쌍용아파트,서울특별시 송파구 송이로15길 31,37.5014471,127.1226538
방배신동아,서울특별시 서초구 효령로 164,37.4812135,127.0013722
한신코아,서울특별시 송파구 올림픽로35가길 11,37.5168027,127.1043832
구로극동,서울특별시 구로구 구로중앙로7길 28,37.4909119,126.8894082
상계3차현대아파트 ,서울특별시 노원구 수락산로 234,37.6716416,127.053546
공릉우방4단지,서울특별시 노원구 노원로 58,37.6266554,127.0873279
쌍문동익파크,서울특별시 도봉구 우이천로32길 65,37.6514803,127.0247582
목동금호베스트빌,서울특별시 양천구 목동중앙북로8길 111,37.5450018,126.8683758
양평신동아아파트,서울특별시 영등포구 영등포로12길 8,37.5221616,126.8865433
답십리우성그린,서울특별시 동대문구 답십리로59길 33,37.5748599,127.0660452
수서가람,서울특별시 강남구 일원로 127,37.4824375,127.0853872
화랑해링턴플레이스,서울특별시 노원구 공릉로34길 45,37.6239469,127.0808511
거여현대1차,서울특별시 송파구 오금로54길 10,37.4931374,127.1406364
구로이화우성,서울특별시 구로구 도림로22길 8,37.4899094,126.8940421
둔촌현대1차,서울특별시 강동구 동남로49길 57,37.5317282,127.1465572
쌍문성원,서울특별시 도봉구 해등로 242-11,37.6585585,127.0292747
염창현대1차,서울 강서구 염창동 288,37.5528062,126.8751623
수서한아름,서울특별시 강남구 광평로51길 22,37.489365,127.1035545
서울숲삼부아파트,서울특별시 성동구 왕십리로 280,37.560002,127.0374627
구로한신휴플러스,서울특별시 구로구 디지털로31길 120,37.4889722,126.8913409
돈암범양,서울특별시 성북구 정릉로 402-16,37.603349,127.0280209
중계중앙하이츠,서울특별시 노원구 덕릉로84길 7,37.6591329,127.0764103
답십리동서울한양,서울특별시 동대문구 답십리로 184,37.5714222,127.0603912
이촌동아그린아파트,서울특별시 용산구 이촌로 100-8,37.5240081,126.9579794
월드컵참누리,서울특별시 마포구 월드컵북로38길 54,37.5726291,126.9045765
래미안남가좌2차,서울특별시 서대문구 수색로6길 43,37.5719992,126.9126716
등촌주공2단지,서울특별시 강서구 강서로68길 36,37.5649371,126.8425169
SK VIEW,서울특별시 구로구 경인로 638,37.5070085,126.8865014
중계양지대림1차,서울특별시 노원구 덕릉로71길 30,37.6514028,127.0709907
당산현대3차,서울특별시 영등포구 당산로41길 23,37.5310896,126.8964119
마포강변힐스테이트,서울특별시 마포구 신수로 15,37.5433077,126.9336392
래미안수유,서울특별시 강북구 한천로159길 8,37.6447964,127.0181926
신정학마을2단지,서울특별시 양천구 신정로14길 1,37.5091685,126.8446745
대우디오빌역삼,서울특별시 강남구 언주로 427,37.5015202,127.0429002
목동대원칸타빌23단지,서울특별시 양천구 목동중앙로 11,37.5321007,126.8668586
관악산휴먼시아3단지,서울특별시 관악구 난곡로 63,37.4605825,126.918575
목동현대하이페리온2차,서울특별시 양천구 오목로 300,37.524211,126.870491
가락1차현대아파트 ,서울특별시 송파구 동남로 160,37.4913441,127.1280554
대방현대1차,서울특별시 동작구 등용로 127,37.5126917,126.9313091
길음뉴타운 데시앙,서울특별시 성북구 서경로 28,37.6064904,127.0161135
압구정현대8차,서울특별시 강남구 압구정로 309,37.5313427,127.0349464
현대한강,서울특별시 용산구 이촌로34길 29,37.5233298,126.9575779
답십리두산위브,서울특별시 동대문구 황물로15길 25,37.5663332,127.0578742
상도래미안1차,서울특별시 동작구 등용로 37,37.5046037,126.933382
신길남서울,서울특별시 영등포구 신길로 108,37.5012317,126.9103397
마곡수명산파크3단지,서울특별시 강서구 수명로1길 110,37.5526641,126.8246879
월계청백4단지,서울특별시 노원구 월계로45가길 94,37.6316981,127.0517199
영등포삼환,서울특별시 영등포구 영중로 145,37.5294615,126.9050948
정릉힐스테이트3차,서울특별시 성북구 보국문로 116,37.6143809,127.0074949
공릉삼익4단지,서울특별시 노원구 동일로198가길 13,37.6298852,127.0719366
천호동아하이빌,서울특별시 강동구 구천면로 278,37.5447137,127.1344342
도봉동아에코빌,서울특별시 도봉구 도봉로180길 6-25,37.6815145,127.0469082
안암삼성래미안,서울 성북구 안암동1가 361번지 안암래미안 관리사무소,37.589317,127.023761
창신두산,서울특별시 종로구 지봉로5길 7,37.574221,127.0142935
정릉푸른마을동아,서울특별시 성북구 서경로 31,37.6073332,127.0143452
신내새한아파트,서울특별시 중랑구 용마산로 616,37.6051873,127.1014689
양평거성파스텔,서울특별시 영등포구 선유로43가길 24,37.5316287,126.8919132
마포자이,서울특별시 마포구 독막로42길 2,37.5433293,126.9451908
도원삼성제2,서울특별시 용산구 새창로8길 7,37.5397888,126.9564008
옥수중앙하이츠,서울특별시 성동구 한림말길 50,37.540028,127.016339
당산동대우,서울특별시 영등포구 영등포로 106,37.5213197,126.8928072
광장현대8단지,서울특별시 광진구 아차산로 522,37.5421038,127.1001431
신트리3단지,서울특별시 양천구 신정로 290,37.5119316,126.8530425
송파파인타운7단지,서울특별시 송파구 충민로4길 19,37.4791574,127.1308268
상계마들대림,서울특별시 노원구 동일로221길 22,37.6597904,127.057275
당산푸르지오,서울특별시 영등포구 영중로 154,37.5301096,126.9064223
서강GS,서울특별시 마포구 창전로 26,37.5440956,126.931681
가양대림경동,서울특별시 강서구 허준로 121,37.5664452,126.8540714
명일한양,서울 강동구 명일동 54,37.5504635,127.1551633
상암월드컵파크3단지,서울 마포구 상암동 1643번지,37.5727883,126.8896983
돈암동부센트레빌,서울특별시 성북구 정릉로 388,37.6024287,127.0264895
잠원한신,서울특별시 서초구 잠원로 150,37.5159339,127.0108543
역삼아이파크,서울특별시 강남구 역삼로 307,37.4991341,127.0452013
상도동중앙하이츠빌아파트,서울특별시 동작구 상도로 320,37.5014488,126.9517257
문정건영,서울특별시 송파구 새말로8길 12,37.4816252,127.1256477
송파파인타운10단지,서울특별시 송파구 송파대로8길 20,37.4772989,127.1298646
거여4단지,서울특별시 송파구 양산로4길 8,37.4892474,127.1438346
논현동현,서울특별시 강남구 언주로146길 18,37.5193078,127.0365482
무악현대임대,서울특별시 종로구 통일로 246-11,37.5757134,126.9584344
은평뉴타운상림마을12단지,서울특별시 은평구 진관3로 70,37.6411039,126.9219731
상도건영제2 관리사무소,서울특별시 동작구 만양로 26,37.5071696,126.9497857
신촌태영데시앙,서울특별시 마포구 서강로9길 45,37.5533735,126.9309792
강일리버파크6단지,서울특별시 강동구 아리수로94길 19,37.5627329,127.1772605
홍제유원하나,서울특별시 서대문구 세검정로 134,37.5951028,126.9523764
원효산호,서울 용산구 원효로4가 118-16,37.5327172,126.9503821
독산동중앙하이츠빌아파트,서울특별시 금천구 범안로 1136,37.4647875,126.8887269
가락극동,서울특별시 송파구 동남로18길 9,37.4957046,127.1326936
잠실우성4차,서울특별시 송파구 백제고분로18길 30,37.5028243,127.0829428
면목두산45단지,서울 중랑구 면목동 면목두산아파트,37.578461,127.0817112
풍납 현대리버빌1차,서울특별시 송파구 토성로 37,37.5307592,127.1153105
방학우성2차,서울특별시 도봉구 해등로 307,37.6568504,127.0217568
개포2차 현대아파트,서울특별시 강남구 언주로 107,37.4824869,127.0512551
래미안장안,서울특별시 동대문구 장한로14길 81,37.5660182,127.0732291
길음래미안2차,서울특별시 성북구 길음로 74,37.610374,127.0242907
개봉두산,서울특별시 구로구 남부순환로95길 88,37.4950228,126.8526549
공릉한보아파트,서울특별시 노원구 공릉로46길 19,37.6280802,127.0803885
연희대우,서울특별시 서대문구 연희로 38-20,37.5615291,126.9295194
공릉해링턴플레이스(구.효성화운트빌),서울특별시 노원구 노원로 62,37.6276076,127.086808
관악벽산2단지,서울특별시 금천구 금하로 793,37.4511267,126.9196921
용마한신,서울특별시 중랑구 사가정로71길 19,37.5811929,127.0954286
옥수현대,서울특별시 성동구 독서당로40길 25,37.5436054,127.0188915
등촌주공10단지,서울 강서구 등촌동 702,37.5623648,126.8483689
롯데우성,서울특별시 노원구 노원로22길 34,37.6469998,127.072784
강동현대홈타운,서울특별시 강동구 고덕로27길 36,37.5564098,127.1384801
마포태영제2,서울특별시 마포구 독막로 266,37.5447358,126.9425711
신사미성,서울특별시 은평구 증산로15길 35-10,37.5895119,126.9077834
명일신동아,서울 강동구 명일동 신동아아파트,37.5537423,127.1521237
염창동아3차,서울특별시 강서구 양천로 731,37.549794,126.8776792
한솔마을,서울특별시 강남구 광평로10길 6,37.4819987,127.0767604
월계6-2초안,서울특별시 노원구 우이천로 102,37.6313268,127.0429362
명일동우성,서울특별시 강동구 고덕로62길 76,37.5509218,127.1521714
면목늘푸른동아아파트,서울특별시 중랑구 동일로 476,37.572881,127.0806504
염리삼성래미안,서울특별시 마포구 숭문길 58,37.5489719,126.9467985
여의도대교,서울특별시 영등포구 국제금융로7길 20,37.5221527,126.9336795
워커힐아파트,서울특별시 광진구 아차산로 637,37.5502689,127.1065657
한양아파트,서울특별시 송파구 가락로 187,37.5058734,127.1150497
여의도미성,서울특별시 영등포구 의사당대로 110,37.5204822,126.9239858
청화아파트,서울특별시 용산구 장문로 27,37.5299597,126.9948167
공릉두산힐스빌,서울특별시 노원구 공릉로 126,37.6209072,127.0797595
중앙구로하이츠,서울특별시 구로구 구일로8길 92,37.4968215,126.8762765
강변건영,서울특별시 성동구 왕십리로 36,37.5403701,127.0451083
광장현대5단지,서울특별시 광진구 아차산로70길 61,37.5396425,127.0998456
금호삼성래미안,서울특별시 성동구 독서당로 343,37.5495792,127.027307
쌍문한양6차,서울특별시 도봉구 시루봉로 58,37.6557438,127.0291405
압구정한양3단지,서울특별시 강남구 압구정로 401,37.5290496,127.0419778
상봉태영데시앙,서울특별시 중랑구 상봉중앙로8길 104,37.6033569,127.0926848
옥수극동그린아파트,서울특별시 성동구 독서당로 175,37.5419656,127.0100138
창신쌍용1단지,서울특별시 종로구 동망산길 19,37.5805173,127.0140195
묵동브라운스톤태릉,서울특별시 중랑구 공릉로18길 59,37.6189128,127.0824499
래미안방배아트힐,서울특별시 서초구 남부순환로 2311-12,37.4776829,127.0051216
여의도한양,서울특별시 영등포구 국제금융로 79,37.521488,126.9325081
서초더샵,서울특별시 서초구 서초중앙로2길 10,37.4841221,127.0183949
서초유원,서울특별시 서초구 서초중앙로24길 43,37.4964194,127.0187163
신정동아이파크,서울특별시 양천구 목동동로 180,37.5215628,126.8721471
구로현대,서울특별시 구로구 디지털로 319,37.488491,126.8959791
신림동부,서울특별시 관악구 신원로 26,37.480463,126.9292661
대림신동아,서울특별시 영등포구 가마산로 312,37.4968598,126.8946389
길동GS강동자이,서울특별시 강동구 천호대로 1239,37.5380276,127.1498347
구로중앙하이츠아파트,서울특별시 구로구 구로동로47길 24,37.4988595,126.8805548
거여3단지,서울특별시 송파구 양산로2길 44,37.4902013,127.1476125
중계주공6단지,서울특별시 노원구 한글비석로8길 41,37.6486487,127.0783625
답십리동답한신,서울특별시 동대문구 답십리로 210-30,37.5708179,127.0625854
창동동아,서울특별시 도봉구 노해로70길 12,37.6512705,127.0503498
영등포경남아너스빌,서울특별시 영등포구 양산로 177,37.5239709,126.9027167
고척삼환로즈빌,서울특별시 구로구 경인로 343,37.4980376,126.8574842
이문현대,서울특별시 동대문구 한천로58길 107,37.6013336,127.070234
묵동아이파크,서울특별시 중랑구 동일로157길 70,37.6105575,127.0737502
청암2단지,서울특별시 노원구 덕릉로94가길 20,37.6632392,127.0790041
방학삼성래미안1단지,서울특별시 도봉구 마들로 646,37.6670964,127.0472435
성수롯데캐슬,서울특별시 성동구 성수일로8길 47,37.5460554,127.0559785
거여5단지,서울특별시 송파구 양산로4길 16,37.4888973,127.1453223
창동신창,서울특별시 도봉구 덕릉로62길 13,37.6410718,127.0416809
대방1차e편한세상,서울 동작구 대방동 nan,37.5119652,126.9292275
청량리한신1차,서울특별시 동대문구 제기로 129,37.587325,127.047631
홍은현대,서울특별시 서대문구 연희로 377,37.5905613,126.938788
꿈의숲대명루첸,서울특별시 성북구 월계로36길 27,37.6201173,127.0477116
서초진흥,서울특별시 서초구 서초대로 385,37.4973943,127.0226759
북가좌삼호,서울특별시 서대문구 거북골로 154,37.5765711,126.9131574
공덕삼성래미안3차,서울특별시 마포구 마포대로7길 22,37.5480555,126.9524601
남서울건영2차,서울특별시 금천구 독산로10길 96,37.449377,126.9107055
돈암현대,서울특별시 성북구 정릉로 404,37.6041274,127.0285886
도곡개포한신아파트,서울특별시 강남구 언주로 123,37.4868952,127.0489053
오류금강수목원,서울특별시 구로구 오리로 1197,37.4882645,126.8323205
자양우성7차,서울특별시 광진구 아차산로36길 39,37.5363612,127.074599
화곡초록,서울특별시 강서구 강서로45다길 30-27,37.5460884,126.8338501
면목현대,서울특별시 중랑구 용마산로 252,37.5757254,127.0892098
오류동 영풍마드레빌,서울특별시 구로구 경인로8길 64,37.4915505,126.8387213
일원샘터마을,서울특별시 강남구 일원로 120,37.484274,127.0826162
마곡수명산파크2단지,서울특별시 강서구 강서로47길 158,37.5565695,126.8318783
중계주공7단지,서울특별시 노원구 한글비석로8길 42,37.6471024,127.0796775
도봉럭키,서울특별시 도봉구 도봉로169길 31,37.6791596,127.0444585
청담삼성진흥,서울특별시 강남구 학동로 513,37.5201372,127.0514268
쌍용대치1차,서울특별시 강남구 영동대로 210,37.4980136,127.0710419
대치현대,서울특별시 강남구 삼성로64길 5,37.5008929,127.0610401
태릉현대,서울특별시 노원구 공릉로34길 74,37.6253828,127.0826165
상계불암대림,서울특별시 노원구 덕릉로94길 21,37.6632213,127.0771611
서강쌍용예가,서울특별시 마포구 독막로 145,37.5484412,126.9295552
신동아,서울특별시 성동구 독서당로 441,37.5544019,127.0328542
이촌대림,서울특별시 용산구 이촌로2가길 122,37.5256238,126.9543702
남서울 무지개 ,서울특별시 금천구 시흥대로73길 11,37.455971,126.8982269
신정학마을1단지,서울특별시 양천구 신정로14길 6,37.5080816,126.8443952
하계시영5단지,서울특별시 노원구 한글비석로 24,37.6332359,127.065671
창전삼성,서울특별시 마포구 서강로 95,37.5509952,126.9306956
제기안암골벽산,서울특별시 동대문구 약령시로 25,37.5835133,127.032346
가양강나루현대,서울특별시 강서구 양천로 507,37.5607691,126.856966
천호삼성아파트,서울특별시 강동구 성안로25길 6,37.5387176,127.1352572
마곡수명산파크7단지,서울특별시 강서구 수명로2가길 22,37.5483311,126.8223697
응봉금호현대,서울특별시 성동구 독서당로 377,37.5510665,127.0309609
논현신동아,서울특별시 강남구 강남대로146길 28,37.5149073,127.0233647
방배1차현대,서울특별시 서초구 서초대로1길 30,37.4885417,126.9839808
수서삼익,서울특별시 강남구 광평로51길 27,37.4891651,127.1009549
삼환가락,서울특별시 송파구 오금로 432,37.4953676,127.1367851
래미안이문2차,서울특별시 동대문구 이문로12길 3-10,37.593404,127.0600617
일원목련타운,서울특별시 강남구 광평로19길 15,37.4852093,127.0842628
대우메트로디오빌,서울특별시 마포구 백범로 199,37.5435044,126.9528726
공덕삼성,서울특별시 마포구 마포대로 115-8,37.5468006,126.9514816
중계양지대림2차,서울특별시 노원구 덕릉로73길 28,37.6537351,127.0725116
이촌현대,서울특별시 용산구 이촌로 303,37.5185927,126.9808408
광장청구,서울특별시 광진구 아차산로 503-23,37.5425784,127.0962915
신도림동아2차,서울 구로구 신도림동 신도림2차동아아파트,37.5083651,126.8860242
자양우성1차,서울 광진구 자양동 nan,37.534414,127.0755843
성수아이파크,서울특별시 성동구 성수이로 137,37.547123,127.0572188
LG한강자이,서울특별시 용산구 이촌로64길 15,37.5199669,126.9711068
상암월드컵파크2단지,서울특별시 마포구 월드컵북로47길 46,37.5749496,126.8915091
공릉2단지라이프,서울특별시 노원구 동일로198가길 149,37.6305821,127.0665249
거여6단지,서울특별시 송파구 양산로2길 38,37.4886075,127.1466473
도봉삼환,서울특별시 도봉구 도봉로180길 6-81,37.6810071,127.0488068
방학신동아2단지,서울특별시 도봉구 방학로15길 40,37.6591199,127.0235374
디엠씨한양,서울특별시 서대문구 응암로 28,37.5759022,126.9091078
가양동신대아,서울특별시 강서구 강서로 532,37.5723889,126.8435191
하계청구,서울특별시 노원구 공릉로 351,37.6377945,127.068697
구로두산위브,서울특별시 구로구 디지털로31길 85,37.4860899,126.8902975
북한산현대홈타운,서울특별시 은평구 불광로2길 16,37.6121197,126.9350558
보라매경남아너스빌,서울특별시 영등포구 여의대방로 25,37.4945833,126.9094978
관악우방,서울특별시 금천구 금하로 750,37.4490446,126.9141297
가락프라자,서울 송파구 가락동 가락프라자아파트,37.491928,127.1335117
삼각산아이원임대,서울특별시 강북구 삼양로19길 113,37.6172903,127.0185281
상계조합대림,서울특별시 노원구 상계로 193-14,37.6630519,127.0745267
염리상록,서울특별시 마포구 숭문길 106,37.5514198,126.9475627
개포경남아파트,서울특별시 강남구 언주로 110,37.4844613,127.0535707
길음삼부,서울특별시 성북구 동소문로 248,37.602455,127.0230734
방화4단지(삼익삼환),서울특별시 강서구 방화대로47가길 22,37.5773423,126.8141297
수서삼성,서울특별시 강남구 광평로31길 27,37.4848991,127.0907043
등촌대림아파트,서울특별시 강서구 공항대로39길 100,37.5621573,126.845847
삼성래미안공덕2차,서울특별시 마포구 마포대로20길 26,37.5509157,126.9595592
약수하이츠아파트(임대),서울특별시 중구 동호로10길 30,37.5548919,127.0147458
하계미성,서울특별시 노원구 공릉로59길 28,37.6346848,127.069553
중랑숲금호어울림,서울특별시 중랑구 양원역로 18,37.6027744,127.1086486
신길1차우성아파트,서울특별시 영등포구 도신로 68-1,37.5053313,126.9004211
돈암일신건영휴먼빌,서울특별시 성북구 아리랑로 89,37.6009267,127.0125252
중계주공4단지,서울특별시 노원구 덕릉로76길 29,37.6557402,127.0767728
쌍문금호1차아파트,서울특별시 도봉구 해등로 206,37.6590733,127.0335
공릉2-6,서울특별시 노원구 화랑로51길 81,37.6247198,127.0877768
창동상아1차,서울특별시 도봉구 해등로 118,37.6540521,127.0422898
강일리버파크10단지,서울특별시 강동구 고덕로97길 20,37.5592085,127.1799976
중계주공8단지,서울특별시 노원구 한글비석로5길 62,37.6463243,127.0753469
신트리2단지,서울특별시 양천구 신정로 275,37.5132996,126.852873
하계1차청구아파트,서울특별시 노원구 한글비석로 91,37.6394506,127.0709532
공릉비선,서울특별시 노원구 화랑로51길 78,37.6257794,127.0873726
이촌한강맨션,서울특별시 용산구 이촌로 248,37.5182077,126.9747156
송파파인타운8단지,서울특별시 송파구 충민로4길 6,37.4792659,127.1282926
신정6차현대,서울특별시 양천구 신정로 170,37.5079077,126.8408442
홍제현대아파트,서울특별시 서대문구 통일로39가길 57,37.5890017,126.9414014
이촌동삼성리버스위트,서울특별시 용산구 이촌로88길 30,37.5172456,126.9768136
신내중앙하이츠,서울 중랑구 신내동 nan,37.6033568,127.0981187
창동아이파크(창동2.3차현대),서울특별시 도봉구 도봉로136길 111,37.6610455,127.0460989
은평뉴타운상림마을1단지,서울특별시 은평구 진관4로 17,37.6415577,126.9227727
풍납현대,서울특별시 송파구 올림픽로 525,37.5293329,127.1188746
보라매삼성,서울 관악구 봉천동 보라매삼성아파트,37.4941134,126.9277936
등촌부영,서울특별시 강서구 강서로56나길 110,37.5635619,126.843643
중림삼성사이버빌리지,서울특별시 중구 중림로 10,37.5581126,126.9653021
성원(사슴4),서울특별시 노원구 마들로3길 37,37.6297676,127.0630305
삼성롯데캐슬프레미어,서울특별시 강남구 선릉로126길 22,37.5152753,127.0447625
고척서울가든,서울특별시 구로구 중앙로5길 62,37.5017893,126.8600913
봉천우성제2,서울특별시 관악구 관악로30길 40,37.4845336,126.9611905
신도림롯데,서울 구로구 구로동 (구로동롯데아파트),37.50345,126.8844706
사당자이,서울 동작구 사당동 사당자이아파트,37.4883863,126.9631362
일원동 수서아파트,서울특별시 강남구 양재대로55길 12,37.4926394,127.0902856
서초트라팰리스1차,서울특별시 서초구 효령로72길 57,37.4868714,127.027958
신길우성2차,서울특별시 영등포구 대방천로 180,37.4982638,126.9125548
하계2차현대아파트,서울특별시 노원구 노원로18길 19,37.6446141,127.0720793
역삼개나리,서울 강남구 역삼동 712-3호 (33동 옆),37.5007799,127.0458064
도곡삼성래미안,서울특별시 강남구 남부순환로 2803,37.4895947,127.0500044
상암월드컵파크7단지,서울특별시 마포구 상암산로1길 92,37.5819338,126.8812087
구로현대연예인,서울특별시 구로구 구일로4길 46,37.4929871,126.8771082
청량리신현대,서울특별시 동대문구 이문로1길 21,37.5896298,127.0518397
돈암풍림임대,서울특별시 성북구 북악산로 898,37.5969942,127.022153
돈암삼성임대,서울특별시 성북구 동소문로34길 24,37.5991559,127.0244619
역삼푸르지오,서울특별시 강남구 언주로 332,37.4975289,127.0460658
답십리두산,서울특별시 동대문구 답십리로56길 21,37.5696142,127.0598719
상록수아파트,서울특별시 강남구 광평로10길 15,37.4818518,127.0810461
답십리동아,서울특별시 동대문구 한천로11길 10-1,37.5693658,127.0617276
갤러리아팰리스,서울특별시 송파구 올림픽로 212,37.5111075,127.0939498
보라매롯데낙천대,서울특별시 동작구 여의대방로10길 38,37.4943002,126.9135893
송파한양2차,서울특별시 송파구 가락로 192,37.5050983,127.1161969
여의도광장,서울특별시 영등포구 여의나루로 7,37.520651,126.9207006
정릉중앙하이츠빌2단지,서울특별시 성북구 정릉로26길 8,37.6049603,127.0091944
하월곡동신,서울특별시 성북구 오패산로3길 17,37.6044231,127.0352907
강일리버파크4단지,서울특별시 강동구 아리수로97길 19,37.5669952,127.1767916
오금대림,서울특별시 송파구 위례성대로 176,37.5103525,127.1292057
상아2차아파트,서울특별시 송파구 오금로 407,37.4981134,127.136586
창동주공2단지,서울특별시 도봉구 해등로12길 44,37.6527304,127.0423156
선릉에클라트,서울특별시 강남구 테헤란로63길 12,37.5061723,127.0509492
서초아크로비스타,서울특별시 서초구 서초중앙로 188,37.4981987,127.0133305
방이코오롱,서울특별시 송파구 오금로31길 27,37.5090693,127.1226227
왕십리풍림아이원,서울특별시 성동구 난계로 84,37.5586201,127.0246988
상암월드컵파크4단지,서울특별시 마포구 상암산로1길 24,37.5163114,127.0484681
궁동우신빌라,서울특별시 구로구 오리로 1265,37.4942451,126.8305225
두산아파트,서울특별시 노원구 동일로241길 53,37.6773823,127.053155
신내8단지두산화성,서울특별시 중랑구 신내로 155,37.6137027,127.0951075
본동신동아,서울특별시 동작구 매봉로 134,37.5096842,126.9518199
압구정 현대(101314차),서울특별시 강남구 압구정로29길 69,37.5306296,127.0261483
문화촌현대,서울특별시 서대문구 문화촌길 6-24,37.592258,126.9494989
명일삼익가든12차,서울특별시 강동구 상암로 224,37.5472116,127.1477263
대치아이파크,서울특별시 강남구 선릉로 222,37.4949838,127.0545833
양평동6차현대아파트,서울특별시 영등포구 선유로 207,37.5318555,126.8935179
신정동일하이빌,서울특별시 양천구 신정로11길 20,37.5119294,126.8391532
용두신동아,서울특별시 동대문구 무학로26길 30,37.5726319,127.0322964
명일엘지,서울특별시 강동구 상암로51길 61,37.5490861,127.1460609
월계사슴2단지,서울특별시 노원구 월계로55길 16,37.6323576,127.061027
문래힐스테이트,서울특별시 영등포구 문래로 82,37.5183627,126.8908636
염창동아1차,서울특별시 강서구 양천로69길 58,37.5548498,126.8731282
중계청구3차,서울특별시 노원구 중계로 233,37.6499123,127.0750637
풍납동아한가람,서울특별시 송파구 한가람로 448,37.5377775,127.1153829
건영3차아파트,서울특별시 관악구 신림로3길 40,37.467082,126.9416614
당산2가현대,서울특별시 영등포구 당산로 95,37.5235102,126.894895
개봉삼환,서울특별시 구로구 남부순환로95길 54,37.4966514,126.8579825
쌍문현대1차,서울특별시 도봉구 해등로 242-12,37.6585731,127.0312223
시흥삼익,서울특별시 금천구 독산로50길 89,37.4632836,126.9094589
월곡래미안루나밸리,서울특별시 성북구 월곡로14길 26,37.599088,127.0421157
중계염광아름빌,서울특별시 노원구 덕릉로79길 23,37.6561843,127.0729582
정릉대우,서울특별시 성북구 보국문로30길 15,37.6180331,127.0034409
도화현대2차아파트(임대),서울특별시 마포구 새창로8길 72,37.5377686,126.9508751
양재우성,서울특별시 서초구 바우뫼로 91,37.4655445,127.0246641
상계중앙하이츠2차,서울특별시 노원구 노원로 428,37.6549666,127.068317
성산월드타운대림,서울특별시 마포구 월드컵북로30길 9-22,37.5693576,126.908252
송파파인타운9단지,서울특별시 송파구 송파대로8길 17,37.4782198,127.1287418
대방주공2단지,서울특별시 동작구 여의대방로44길 47,37.5095402,126.929455
신내동성3차아파트,서울특별시 중랑구 신내로 110,37.608527,127.0962591
휘경주공2단지,서울특별시 동대문구 한천로 248,37.5830037,127.0707607
당산강변래미안3차,서울특별시 영등포구 버드나루로 130,37.5293549,126.9085041
신내대명11단지,서울특별시 중랑구 봉화산로 193,37.6073321,127.0942125
대치동부센트레빌,서울특별시 강남구 선릉로 206,37.4930864,127.055548
고덕아남,서울특별시 강동구 양재대로 1706,37.5579377,127.1467882
창동주공1단지,서울특별시 도봉구 해등로 113,37.6534424,127.0394284
인왕산아이파크,서울특별시 종로구 통일로18길 9,37.5771174,126.9572222
마장세림,서울특별시 성동구 마장로42길 16,37.5652973,127.0452055
길동우성2차,서울 강동구 길동 nan,37.5370211,127.1437013
신도림동아3차,서울특별시 구로구 신도림로 78,37.5095601,126.8842082
신내진로아파트,서울특별시 중랑구 신내로17길 41,37.6141198,127.093395
상암월드컵1단지,서울특별시 마포구 월드컵북로47길 8,37.5753148,126.8933187
청계벽산,서울특별시 성동구 무학로 50,37.5688924,127.0319041
대청,서울특별시 강남구 개포로109길 21,37.4941776,127.07521
정릉우성,서울특별시 성북구 북악산로 813,37.6010726,127.0156807
쌍문한양1차,서울특별시 도봉구 우이천로 304,37.6460891,127.0306912
신도림미성,서울 구로구 신도림동 미성아파트,37.5072861,126.8765698
상도건영,서울특별시 동작구 만양로 26,37.5071675,126.9497843
압구정한양2단지,서울특별시 강남구 압구정로 313,37.5298469,127.0404998
신길삼성래미안,서울특별시 영등포구 가마산로79길 7,37.5054901,126.9152452
불암현대,서울특별시 노원구 덕릉로118길 29,37.6678352,127.0818153
구일우성아파트,서울특별시 구로구 구일로2길 60,37.4902883,126.8769093
상계주공8단지,서울특별시 노원구 노원로38길 10,37.66397,127.0621436
한강대우,서울특별시 용산구 이촌로 181,37.5224073,126.9702362
가락우성1차,서울특별시 송파구 송파대로32길 8,37.4971891,127.1175983
공릉3단지라이프,서울특별시 노원구 섬밭로 123,37.6273074,127.0686144
역삼e-편한세상,서울특별시 강남구 선릉로69길 20,37.4990116,127.0506456
상계주공5단지,서울특별시 노원구 동일로216길 47,37.6526752,127.0639994
상암월드컵8단지,서울특별시 마포구 월드컵로42길 12,37.5776205,126.8829174
강일리버파크9단지,서울특별시 강동구 고덕로97길 29,37.558354,127.1778329
공릉삼익1차아파트,서울 노원구 공릉동 737번지,37.626838,127.0811402
신트리4단지,서울특별시 양천구 신정로 260,37.5110396,126.850046
전농SK제2(임대),서울특별시 동대문구 전농로10길 111,37.5773883,127.0628042
신도림4차e-편한세상,서울특별시 구로구 경인로65길 16-15,37.5108658,126.8868711
응봉대림1차,서울특별시 성동구 독서당로62길 43,37.5519496,127.0332766
대현럭키,서울특별시 서대문구 이화여대길 50-12,37.5595234,126.9479632
사당4-3우성,서울 동작구 사당동 사당우성3단지아파트 관리사무소,37.4886826,126.9764363
신내엘지쌍용,서울특별시 중랑구 봉화산로 146,37.4886826,126.9764363
장안현대힐스테이트,서울특별시 동대문구 장안벚꽃로1길 7,37.5759749,127.0753766
정릉경남,서울특별시 성북구 정릉로 305,37.6043325,127.0171534
홍제무악청구1차,서울특별시 서대문구 통일로 348,37.5819293,126.9520597
목동현대하이페리온,서울특별시 양천구 목동동로 257,37.5268536,126.8750345
월계동신,서울특별시 노원구 광운로2나길 30,37.6167404,127.061025
여의도삼부,서울특별시 영등포구 국제금융로7길 27,37.5245331,126.9318535
신내성원,서울특별시 중랑구 신내로 51,37.6048367,127.0947898
고덕주공6단지,서울 강동구 상일동 124-5,37.5533274,127.1706806
신대방현대,서울특별시 동작구 여의대방로 28,37.4936403,126.912997
월계사슴3단지,서울특별시 노원구 월계로55길 15,37.6319168,127.0595
고척벽산블루밍,서울특별시 구로구 경인로 390,37.4956202,126.8647287
청담삼익,서울특별시 강남구 학동로 609,37.5220877,127.0592063
서울숲푸르지오,서울특별시 성동구 금호로 15,37.5449355,127.0221874
풍납한강극동,서울특별시 송파구 토성로 38-6,37.5296833,127.1123385
독립문삼호,서울특별시 서대문구 독립문로 10,37.5703141,126.9584462
사당동작삼성래미안아파트,서울특별시 동작구 사당로23바길 9,37.4888821,126.9711461
극동2차아파트,서울 광진구 광장동 극동2차아파트,37.5433615,127.1041476
번동주공4단지,서울특별시 강북구 오현로 207,37.6310371,127.0390097
개포주공7단지,서울특별시 강남구 개포로 516,37.489486,127.0724108
옥수극동,서울특별시 성동구 독서당로 191,37.5432748,127.0115694
노량진우성,서울특별시 동작구 만양로8길 50,37.5096343,126.9478165
월계삼호4차,서울특별시 노원구 마들로 127,37.626528,127.0641703
창동주공18단지,서울특별시 도봉구 노해로70길 126,37.6467803,127.0512267
압구정미성2차,서울특별시 강남구 압구정로 113,37.5235704,127.0194299
가양9-1,서울특별시 강서구 허준로 224,37.5600853,126.8616397
도화현대홈타운,서울특별시 마포구 새창로8길 72,37.5367386,126.9509486
가락금호,서울특별시 송파구 송파대로32길 15,37.4963581,127.1163709
가락래미안파크팰리스,서울특별시 송파구 동남로 225,37.4981982,127.1321113
마곡수명산파크4단지,서울특별시 강서구 수명로1길 16,37.5512432,126.8233716
삼성동힐스테이트2단지,서울특별시 강남구 삼성로111길 8,37.5138666,127.0515094
푸른마을아파트,서울 강남구 일원동 푸른마을아파트,37.4846837,127.0813262
오류동부골든,서울특별시 구로구 고척로 49,37.4991205,126.8397859
가락삼익맨션,서울특별시 송파구 오금로32길 5,37.5042198,127.1213172
상계주공13단지,서울특별시 노원구 한글비석로54길 92,37.6673747,127.0632601
개포주공5단지,서울특별시 강남구 삼성로4길 17,37.4878016,127.0680279
신당현대,서울특별시 중구 다산로36길 109,37.5599909,127.0217626
신반포한신5지구(121318차),서울특별시 서초구 잠원로 195,37.5181174,127.0140377
중계건영3차,서울특별시 노원구 노원로22길 71,37.6484375,127.0750077
마곡수명산파크5단지,서울특별시 강서구 수명로2길 105,37.5518797,126.8272011
창동대우,서울특별시 도봉구 덕릉로63가길 43,37.642249,127.0373097
상도sh-ville,서울특별시 동작구 상도로53길 70,37.5021303,126.9543846
창동태영데시앙,서울특별시 도봉구 도봉로110다길 51,37.6429232,127.0334037
중계라이프신동아청구아파트,서울특별시 노원구 중계로 184,37.6513433,127.0787546
청량리한신,서울특별시 동대문구 제기로 131,37.5881072,127.0494012
흑석한강현대,서울특별시 동작구 현충로 151,37.5066333,126.9707
대치삼성,서울특별시 강남구 도곡로78길 22,37.4963363,127.0583563
삼호,서울특별시 서초구 방배로45길 2,37.4974479,126.9868947
무악현대,서울특별시 종로구 통일로 246-20,37.5751953,126.960306
개봉현대홈타운2단지,서울특별시 구로구 개봉로20길 158,37.4918455,126.8613353
목동현대아파트,서울 양천구 신정동 nan,37.520151,126.8772093
길동신동아,서울특별시 강동구 천중로 264,37.5401404,127.1488781
수색대림한숲타운,서울특별시 은평구 은평터널로 65,37.5868487,126.9000124
당산현대5차,서울특별시 영등포구 당산로42길 16,37.5296467,126.900834
길음래미안3차,서울특별시 성북구 길음로 16,37.6062699,127.0229072
마포삼성,서울특별시 마포구 도화길 28,37.5401501,126.9502808
방화2-2 그린,서울특별시 강서구 방화대로48길 40,37.5746696,126.8195884
남서울럭키아파트,서울특별시 금천구 시흥대로47길 43,37.4482097,126.8989408
강일리버파크3단지,서울특별시 강동구 아리수로93길 40,37.5655171,127.1751069
한강타운아파트,서울특별시 강서구 허준로 23,37.5714005,126.844997
롯데캐슬클래식,서울특별시 서초구 서운로 200,37.5000161,127.0214472
잠원동아,서울특별시 서초구 신반포로33길 15,37.5087284,127.0101655
신당삼성(분양),서울특별시 중구 청구로1길 23,37.5580944,127.0179323
금천현대,서울특별시 금천구 벚꽃로 73,37.4622731,126.8903796
신트리1단지,서울특별시 양천구 신정로 293,37.5141589,126.8548469
홍제한양,서울특별시 서대문구 통일로25길 30,37.5830058,126.9475449
방화6단지,서울특별시 강서구 금낭화로23길 25,37.5786033,126.8108332
독산한신,서울특별시 금천구 한내로 62,37.4555624,126.8893489
신내12단지,서울특별시 중랑구 봉화산로 153,37.6053662,127.0911463
이촌강촌아파트,서울특별시 용산구 이촌로81길 14,37.5195296,126.9795589
거여1단지,서울특별시 송파구 양산로8길 8,37.4909438,127.1445317
가양9-2,서울 강서구 가양동 1490 가양9-2단지,37.5587215,126.863549
서대문천연뜨란채아파트,서울특별시 서대문구 독립문로8길 54,37.5676522,126.958455
파크타워,서울특별시 용산구 서빙고로 67,37.5242783,126.9706853
등촌3단지주공아파트,서울특별시 강서구 강서로56나길 37,37.5616468,126.841109
마장현대,서울특별시 성동구 마장로35길 76,37.5694733,127.0425631
도화현대1차아파트,서울특별시 마포구 새창로 52,37.5393237,126.9528767
광화문풍림스페이스본 아파트,서울특별시 종로구 사직로8길 4,37.5744035,126.9686008
대치선경,서울특별시 강남구 삼성로 151,37.4924221,127.0623396
등촌주공5단지,서울특별시 강서구 공항대로39길 74,37.5605195,126.8449392
신내동성1차2차,서울특별시 중랑구 신내로 128,37.6092058,127.098393
역삼래미안,서울특별시 강남구 선릉로69길 19,37.4975233,127.050065
반포경남,서울 서초구 반포동 경남아파트,37.5058321,126.9997628
광장현대3단지아파트,서울특별시 광진구 아차산로70길 62,37.5404026,127.0985124
개포주공6단지,서울특별시 강남구 개포로 516,37.489122,127.0726818
방화11단지,서울특별시 강서구 개화동로21길 4,37.5701413,126.8055327
목동롯데캐슬위너,서울특별시 양천구 목동중앙북로 38,37.546889,126.8672368
신내4단지,서울특별시 중랑구 숙선옹주로 91,37.6166943,127.0848708
제기한신,서울특별시 동대문구 고산자로 534,37.5888362,127.0391833
브라운스톤 돈암,서울특별시 성북구 북악산로 844,37.5978757,127.0177941
사당우성2단지,서울 동작구 사당동 105번지,37.4886826,126.9764363
청량리미주,서울특별시 동대문구 약령시로 147,37.5839418,127.0468278
역삼럭키,서울특별시 강남구 논현로 213,37.4904585,127.0398285
신도림동아1차,서울특별시 구로구 신도림로 87,37.5110653,126.8829702
리버힐삼성아파트,서울특별시 용산구 효창원로 17,37.5348358,126.9497669
가양도시개발공사8단지(임대),서울특별시 강서구 허준로 176,37.5616771,126.8572021
답십리청솔우성,서울특별시 동대문구 전농로10길 20,37.574435,127.0595902
신내건영2차아파트,서울특별시 중랑구 신내로7길 20,37.6010825,127.0931157
DMC래미안클라시스,서울특별시 서대문구 증가로 191,37.577934,126.9165687
상도더샵,서울특별시 동작구 장승배기로4길 9,37.5023958,126.9420377
래미안길음1차,서울특별시 성북구 길음로9길 40,37.60576,127.0210492
서초래미안,서울특별시 서초구 서초대로65길 13-10,37.4985584,127.0188966
개포1차2차우성,서울특별시 강남구 선릉로 120,37.4911216,127.0598978
목동우성2차,서울특별시 양천구 목동남로4길 6-23,37.5077521,126.8666378
목동2차우성임대,서울특별시 양천구 목동남로4길 6-46,37.5062043,126.865232
삼성힐스테이트1단지,서울특별시 강남구 학동로68길 29,37.5163114,127.0484681
응봉대림강변,서울특별시 성동구 고산자로 160,37.5534751,127.0358252
사당 대림아파트 관리사무소,서울특별시 동작구 사당로17길 52,37.4877838,126.972064
남가좌현대아파트,서울특별시 서대문구 가재울로 45,37.5747049,126.9195759
대림현대3차,서울특별시 영등포구 도신로 31,37.5055203,126.8956193
수서신동아,서울특별시 강남구 광평로47길 17,37.4872297,127.09869
우장산롯데캐슬,서울특별시 강서구 공항대로 382,37.5552159,126.8480525
종암삼성래미안,서울특별시 성북구 종암로25길 30,37.6010008,127.0301481
광장현대파크빌,서울특별시 광진구 아차산로 549,37.5441501,127.1015396
신길삼환,서울특별시 영등포구 여의대방로43라길 9,37.508155,126.9193471
자양더샵스타시티,서울특별시 광진구 아차산로 262,37.5378573,127.072564
금호대우,서울특별시 성동구 독서당로 272,37.5459761,127.0197123
하계청솔,서울특별시 노원구 공릉로59길 25,37.6323401,127.0712601
신반포4차,서울특별시 서초구 잠원로 37-48,37.5087416,127.0062945
금호벽산(임대501동),서울특별시 성동구 행당로6길 2,37.5543442,127.0258378
양평한신,서울특별시 영등포구 양평로24길 9,37.5401252,126.8921087
성내삼성,서울특별시 강동구 풍성로38길 22,37.5311547,127.1245822
마포도화우성아파트,서울특별시 마포구 삼개로 38,37.5369085,126.9473837
휘경주공1단지,서울특별시 동대문구 한천로 248,37.5830037,127.0707607
압구정한양아파트제1단지,서울 강남구 압구정동 490번지 8동 관리사무소,37.53035,127.0392943
전농우성,서울 동대문구 전농동 서울특별시 동대문구 전농2동 6번지,37.5772753,127.0649702
신내5단지대림두산,서울특별시 중랑구 신내로21길 16,37.6170175,127.0893092
구로삼성래미안,서울특별시 구로구 디지털로31길 90,37.4875908,126.8919379
신도림태영타운,서울특별시 구로구 새말로 93,37.5060878,126.8886475
반포미도아파트,서울특별시 서초구 서초중앙로29길 28,37.5022696,127.008831
성현동아,서울특별시 관악구 관악로 285,37.4895721,126.956341
금호두산,서울특별시 성동구 동호로 100,37.5506428,127.0164657
돈암삼성,서울특별시 성북구 동소문로34길 24,37.5983263,127.0225984
대상타운현대,서울특별시 도봉구 마들로 616,37.6655235,127.0478802
월계동현대,서울특별시 노원구 석계로 49,37.6185533,127.0625936
구로두산,서울특별시 구로구 도림로 59,37.4893718,126.8886871
벽산6,서울특별시 금천구 금하로 796,37.4494632,126.916643
독립문극동,서울특별시 서대문구 독립문공원길 17,37.5720665,126.9567073
문래자이아파트,서울특별시 영등포구 당산로4길 12,37.5160389,126.896786
상계은빛2단지,서울특별시 노원구 동일로245가길 41,37.679964,127.0535108
신내9단지,서울특별시 중랑구 신내로 127,37.6122193,127.0944007
오금현대아파트,서울특별시 송파구 오금로35길 17,37.5048491,127.1257434
문정시영,서울특별시 송파구 송이로31길 56,37.490605,127.1354526
이문쌍용,서울특별시 동대문구 한천로58길 47,37.5997847,127.0685035
하계현대우성,서울특별시 노원구 섬밭로 232,37.6367077,127.0663518
고덕주공9단지,서울특별시 강동구 상암로 251,37.54796,127.1498653
서빙고신동아,서울특별시 용산구 이촌로 347,37.5180956,126.9874041
신대방우성1차,서울특별시 동작구 여의대방로 22,37.4922794,126.9116108
불광미성,서울특별시 은평구 통일로 780,37.6149349,126.9283299
삼각산아이원,서울특별시 강북구 삼양로19길 113,37.615229,127.0181315
목동8단지,서울특별시 양천구 목동서로 280,37.5218999,126.8683514
창동쌍용,서울특별시 도봉구 마들로 551,37.6598502,127.0481785
잠실아시아선수촌,서울특별시 송파구 올림픽로4길 15,37.5074435,127.0767086
면목2동한신아파트,서울특별시 중랑구 중랑천로 20,37.5875092,127.0754781
개봉한진,서울특별시 구로구 개봉로3길 87,37.4851033,126.8514274
방화5단지,서울특별시 강서구 금낭화로 287-19,37.5770617,126.8103825
래미안월곡,서울특별시 성북구 오패산로 90,37.61044,127.0368836
길음동부센트레빌,서울특별시 성북구 숭인로2길 61,37.610374,127.0242907
이문e-편한세상,서울특별시 동대문구 한천로63길 10,37.6047456,127.0648775
목동4단지,서울특별시 양천구 목동서로 130,37.5320037,126.8711975
상계은빛1단지,서울특별시 노원구 동일로245길 162,37.6815501,127.0539861
당산삼성래미안,서울특별시 영등포구 당산로 214,37.5320908,126.902986
공릉1단지,서울특별시 노원구 동일로 1127,37.6301175,127.0701578
수서까치마을,서울특별시 강남구 광평로19길 10,37.4847039,127.0877692
서울숲한신더휴아파트,서울특별시 성동구 고산자로 164,37.5549104,127.0366365
마곡수명산파크1단지,서울특별시 강서구 강서로47길 108,37.554396,126.8304907
마포태영아파트,서울특별시 마포구 독막로 266,37.5447358,126.9425711
번동1단지주공아파트,서울특별시 강북구 한천로105길 23,37.6247516,127.0472779
신내10단지,서울특별시 중랑구 신내로 115,37.6092763,127.0946105
수유벽산,서울특별시 강북구 삼각산로 143-1,37.6419753,127.017972
신림푸르지오,서울특별시 관악구 남부순환로 1430,37.4791307,126.9104854
도원삼성래미안,서울특별시 용산구 새창로 70,37.5380983,126.9554472
가양6단지,서울특별시 강서구 허준로 175,37.5632285,126.8593109
가산두산위브,서울특별시 금천구 가산로 99,37.4746215,126.892642
홍은벽산,서울특별시 서대문구 세검정로1길 95,37.5954557,126.9455393
목동한신청구,서울특별시 양천구 목동서로2길 22,37.5414628,126.8816546
롯데캐슬베네치아,서울특별시 중구 청계천로 400,37.5711004,127.0222215
쌍문삼익,서울특별시 도봉구 해등로 195,37.657078,127.0367266
중화한신아파트,서울특별시 중랑구 동일로 752,37.5973448,127.0825323
사당극동,서울특별시 동작구 동작대로29길 119,37.4886826,126.9764363
가양3단지(강변),서울특별시 강서구 허준로 139,37.5652229,126.8556837
방화2단지,서울특별시 강서구 방화대로48길 40,37.5746696,126.8195884
신반포한신2차,서울특별시 서초구 신반포로23길 41,37.5092254,127.0010246
여의도시범아파트,서울특별시 영등포구 63로 45,37.5205064,126.9385984
목동3단지,서울특별시 양천구 목동서로 100,37.5341913,126.8714975
상계벽산,서울특별시 노원구 한글비석로 396,37.6614862,127.072822
구의현대프라임,서울특별시 광진구 광나루로56길 29,37.5372144,127.0974527
목동11단지,서울특별시 양천구 목동동로 10,37.511398,126.859448
관악우성아파트,서울특별시 관악구 관악로30길 12,37.4853872,126.9592709
신당약수하이츠,서울특별시 중구 동호로10길 30,37.5549165,127.015698
공릉풍림아이원,서울특별시 노원구 섬밭로 139,37.6290609,127.0667987
길음뉴타운대림4단지,서울특별시 성북구 길음로 118,37.612084,127.0196483
구의현대2단지,서울특별시 광진구 광나루로56길 32,37.5394441,127.0961406
프라이어팰리스,서울특별시 강동구 고덕로 130,37.5535297,127.1395194
SH공사대치1단지,서울특별시 강남구 개포로109길 5,37.4941776,127.07521
가양2단지,서울특별시 강서구 허준로 47,37.5702365,126.8480726
대방대림,서울특별시 동작구 여의대방로44길 10,37.507338,126.9246341
길음뉴타운푸르지오아파트23단지,서울특별시 성북구 길음로 119,37.611816,127.0162373
쌍문한양234차,서울특별시 도봉구 해등로 231,37.6570493,127.0313402
등촌IPARK,서울특별시 강서구 등촌로 163,37.5439103,126.8602577
래미안상도3차,서울특별시 동작구 상도로53길 8,37.4992699,126.9547179
창동삼성,서울특별시 도봉구 노해로66길 21,37.6490829,127.0485546
공릉태강,서울특별시 노원구 공릉로34길 62,37.6236377,127.0832445
문정래미안,서울특별시 송파구 문정로 83,37.4908501,127.130255
신동아리버파크,서울특별시 동작구 만양로 19,37.5075289,126.9439718
금호벽산,서울특별시 성동구 금호로 100,37.551862,127.0271242
창동주공4단지,서울특별시 도봉구 덕릉로 349,37.6454834,127.0472453
서원아파트,서울특별시 도봉구 마들로 684-9,37.6734511,127.04809
상계주공12단지,서울특별시 노원구 한글비석로 530,37.6661694,127.0593426
개포대치2단지,서울특별시 강남구 개포로109길 9,37.4822379,127.0733533
창동주공19단지,서울특별시 도봉구 노해로70길 54,37.6494912,127.0531884
시흥벽산1단지,서울특별시 금천구 금하로 793,37.4511267,126.9196921
래미안장안2차,서울특별시 동대문구 장안벚꽃로 167,37.5739731,127.0754092
중계주공2단지,서울특별시 노원구 한글비석로14길 8,37.6579558,127.0779964
SH성산아파트,서울특별시 마포구 월드컵로 207,37.5643113,126.9014624
전농SK,서울특별시 동대문구 사가정로 148,37.5764855,127.0595598
잠실우성123차,서울특별시 송파구 올림픽로4길 42,37.5068615,127.073165
관악드림타운제2,서울특별시 관악구 구암길 106,37.4898158,126.9516251
목동5단지,서울특별시 양천구 목동동로 350,37.5332441,126.8829057
목동12단지,서울특별시 양천구 목동동로 50,37.5132319,126.8623246
하계6단지(장미),서울특별시 노원구 섬밭로 196,37.6337068,127.0678724
중계경남롯데상아,서울특별시 노원구 섬밭로 265,37.638983,127.0626385
압구정신현대,서울특별시 강남구 압구정로 151,37.5262291,127.0244949
상계주공11단지,서울특별시 노원구 동일로227길 25,37.6657377,127.0556395
하계학여울청구,서울특별시 노원구 동일로207길 186,37.6357596,127.0616188
정릉풍림아이원,서울특별시 성북구 솔샘로25길 28,37.6185895,127.0073229
하계극동건영벽산,서울특별시 노원구 섬밭로 229,37.6355286,127.0648499
상계17단지,서울특별시 도봉구 덕릉로66길 17,37.6441576,127.0533313
창동동아청솔,서울특별시 도봉구 노해로69길 103,37.6572555,127.048141
개봉한마을,서울특별시 구로구 경인로 382,37.4952761,126.8624239
가양4단지,서울특별시 강서구 양천로57길 37,37.5650258,126.8510376
석관두산,서울특별시 성북구 화랑로48길 16,37.6129055,127.0684003
봉천두산12단지,서울특별시 관악구 봉천로 387,37.4848788,126.9431459
월계주공2단지,서울특별시 노원구 초안산로1길 18,37.6265297,127.0517313
상계주공2단지,서울특별시 노원구 동일로215길 23,37.6503337,127.0600209
목동9단지,서울특별시 양천구 목동서로 340,37.5187044,126.8613466
신당남산타운임대,서울특별시 중구 다산로 32,37.5467804,127.0072969
창동북한산아이파크,서울특별시 도봉구 도봉로136길 28,37.6579079,127.0437366
상계주공1단지,서울특별시 노원구 동일로213길 21,37.646847,127.0590541
가락쌍용1차,서울특별시 송파구 동남로 193,37.4954185,127.1285511
상계주공15단지,서울특별시 노원구 동일로227길 26,37.6683012,127.055611
관악푸르지오아파트,서울 관악구 봉천동 1717,37.4873089,126.9608583
행당한진타운,서울특별시 성동구 행당로 82,37.5560348,127.0292269
구로주공,서울특별시 구로구 구일로4길 65,37.4935926,126.8755006
관악현대,서울특별시 관악구 관악로 304,37.4920393,126.9583526
상계주공4단지,서울특별시 노원구 동일로 1362,37.6504505,127.0634916
화곡푸르지오,서울특별시 강서구 화곡로13길 107,37.5446962,126.8313603
장안현대홈타운,서울특별시 동대문구 장안벚꽃로 107,37.5698432,127.0745688
월곡두산위브아파트,서울특별시 성북구 오패산로 46,37.6070339,127.0383738
신월시영아파트,서울특별시 양천구 신월로 99,37.5176143,126.8359615
상계주공14단지,서울특별시 노원구 동일로228길 23,37.6688541,127.0594091
목동13단지,서울특별시 양천구 목동동로 100,37.514173,126.8650104
신도림대림12차,서울특별시 구로구 신도림로 16,37.5058413,126.880595
중계주공5단지,서울특별시 노원구 중계로 230,37.6532581,127.0766362
상계주공16단지,서울특별시 노원구 동일로227길 86,37.6687238,127.0553293
행당대림,서울특별시 성동구 행당로 79,37.557906,127.0271171
명일삼익그린2차,서울특별시 강동구 고덕로 210,37.5532919,127.148467
가양5단지,서울특별시 강서구 양천로57길 36,37.5636713,126.8548294
개봉동현대아파트,서울특별시 구로구 개봉로20길 6,37.4920888,126.858502
중계무지개아파트,서울특별시 노원구 동일로208길 20,37.6427243,127.0665685
대치미도맨션,서울특별시 강남구 삼성로 150,37.4933854,127.067338
영등포푸르지오,서울특별시 영등포구 도신로29길 28,37.5120598,126.9045485
우장산아이파크이편한세상,서울특별시 강서구 강서로 266,37.5488035,126.8404024
목동7단지,서울특별시 양천구 목동로 212,37.5290303,126.869144
수서주공,서울특별시 강남구 광평로51길 49,37.4903395,127.0997555
중계시영3단지목련,서울특별시 노원구 노원로 331,37.6465111,127.069028
상계주공7단지,서울특별시 노원구 상계로1길 92,37.6580044,127.060964
잠원한신4지구(8차~11차17차),서울특별시 서초구 나루터로4길 39,37.5116554,127.0123844
상계주공6단지,서울특별시 노원구 노해로 508,37.6534408,127.0630823
상계주공10단지 ,서울특별시 노원구 노원로 564,37.6634281,127.0538808
도봉한신,서울특별시 도봉구 마들로 859-19,37.6857192,127.0480587
잠실레이크팰리스,서울 송파구 잠실동 44번지,37.5086223,127.0927735
관악벽산타운5단지,서울특별시 금천구 금하로 816,37.4482739,126.9187672
상계주공9단지,서울특별시 노원구 노원로 532,37.662167,127.059948
창동주공3단지,서울특별시 도봉구 해등로 50,37.6500348,127.045837
암사선사현대,서울특별시 강동구 상암로 11,37.5522571,127.1266968
신정양천,서울특별시 양천구 목동로3길 41,37.5099235,126.8632848
도곡렉슬,서울특별시 강남구 선릉로 221,37.4930287,127.0489846
월계그랑빌,서울특별시 노원구 마들로 31,37.6178054,127.0685797
목동14단지,서울특별시 양천구 목동동로 130,37.5151892,126.8713633
신당남산타운(분양),서울특별시 중구 다산로 32,37.5467804,127.0072969
압구정현대아파트,서울특별시 강남구 압구정로29길 71,37.5331972,127.0280917
방학신동아1단지,서울특별시 도봉구 시루봉로 107,37.6606886,127.0286105
강동롯데캐슬퍼스트아파트,서울특별시 강동구 고덕로 131,37.556623,127.1430468
상계보람,서울특별시 노원구 한글비석로 480,37.6627915,127.0644118
신천장미1차2차,서울특별시 송파구 올림픽로35길 104,37.519587,127.0994131
반포자이,서울특별시 서초구 신반포로 270,37.507538,127.0135922
중계그린,서울특별시 노원구 동일로207길 18,37.6420264,127.0641156
관악드림타운,서울특별시 관악구 성현로 80,37.4898239,126.9506808
잠실동트리지움,서울특별시 송파구 잠실로 62,37.5083905,127.0895562
성산시영아파트,서울특별시 마포구 월드컵북로 260,37.5684652,126.9028201
돈암동한신한진아파트,서울특별시 성북구 성북로4길 52,37.5949161,127.0102405
월계시영고층,서울특별시 노원구 마들로 111,37.6239862,127.0657785
반포본동아파트,서울특별시 서초구 신반포로3길 14,37.5030465,126.9869329
은마,서울특별시 강남구 삼성로 212,37.4977415,127.0650701
올림픽훼밀리타운,서울특별시 송파구 중대로 24,37.4885215,127.1143761
개포주공1단지,서울특별시 강남구 개포로 310,37.4800022,127.0585214
올림픽선수기자촌아파트,서울특별시 송파구 양재대로 1218,37.5179148,127.1361039
잠실리센츠,서울특별시 송파구 올림픽로 135,37.5127515,127.088451
잠실엘스아파트 ,서울특별시 송파구 올림픽로 99,37.5127515,127.088451
잠실파크리오,서울특별시 송파구 올림픽로 435,37.5212508,127.1093216
공덕래미안5차,서울특별시 마포구 마포대로 167,37.5507992,126.9521365
고덕리엔파크2단지,서울특별시 강동구 고덕로 427,37.5597131,127.1731354
반포미도2차,서울특별시 서초구 사평대로 240,37.5023578,127.0075124
잠실5단지아파트,서울특별시 송파구 송파대로 567,37.5143691,127.093004
월계유원,서울 노원구 월계동 880번지(덕릉로60길 252),37.629816,127.0454771
갈현베르빌주상복합아파트,서울특별시 은평구 연서로 149,37.6122422,126.9168122
신반포22,서울특별시 서초구 잠원로 86,37.5124574,127.0079051
사당신동아4단지,서울특별시 동작구 동작대로29길 110,37.4886826,126.9764363
독산주공14단지,서울특별시 금천구 한내로 69-54,37.4601188,126.8865685
종암선경아파트,서울특별시 성북구 종암로5길 26,37.5944341,127.0338125
휘경 미소지움아파트,서울특별시 동대문구 망우로 105,37.5915179,127.0644927
돈암힐스테이트,서울특별시 성북구 아리랑로 68,37.5986397,127.0149705
홍제원 현대,서울특별시 서대문구 통일로34길 43,37.5876675,126.9495987
한일유앤아이,서울특별시 강북구 월계로21가길 41,37.6148297,127.0365907
종암2차아이파크,서울특별시 성북구 종암로9길 71,37.5973718,127.0309927
봉천건영6차아파트,서울특별시 관악구 관악로 133,37.4770751,126.9518898
청실아파트,서울특별시 구로구 경인로40길 25,37.4954923,126.8597726
종암SK,서울특별시 성북구 종암로24가길 53,37.6010883,127.0369642
송파파인타운6단지,서울특별시 송파구 충민로6길 14,37.4802994,127.1320225
월계초안산쌍용,서울 노원구 월계동 945,37.6304246,127.0443868
한강쌍용,서울특별시 동작구 노량진로24길 2,37.5121972,126.9529795
반포푸르지오,서울특별시 서초구 신반포로15길 4,37.5040994,126.9971987
신내경남아너스빌,서울특별시 중랑구 봉화산로56길 112,37.6037982,127.0970347
서울수목원현대홈타운스위트,서울특별시 구로구 연동로13길 25,37.4842505,126.8198155
방배한신트리플,서울특별시 서초구 방배로33길 29,37.4912762,126.9893021
방화12단지(중앙),서울특별시 강서구 양천로6길 28,37.5697906,126.80664
한남힐스테이트,서울특별시 용산구 장문로 141,37.5287855,127.0038012
목동1단지,서울특별시 양천구 목동서로 38,37.5392044,126.880561
충정리시온,서울특별시 서대문구 서소문로 27,37.5604168,126.9651045
홍제인왕산현대,서울특별시 서대문구 통일로34길 46,37.5856879,126.9501007
신동아파밀리에,서울특별시 성북구 화랑로 210-26,37.6072388,127.0540258
마천우방,서울특별시 송파구 성내천로 211,37.5003286,127.1520468
방학신동아3단지,서울특별시 도봉구 방학로15길 26-7,37.6602606,127.0232617
롯데캐슬루나,서울특별시 노원구 월계로45길 21,37.6259588,127.0507602
여의도대우트럼프월드,서울특별시 영등포구 여의동로 143,37.5176189,126.932358
동작상떼빌주상복합,서울특별시 동작구 신대방1가길 38,37.4874945,126.9069458
북한강성원아파트,서울특별시 용산구 이촌로2가길 66,37.5273113,126.9537952
고덕현대아파트,서울 강동구 명일동 56,37.5505067,127.1535479
은평뉴타운상림마을14단지,서울특별시 은평구 진관4로 48-51,37.6484546,126.9291039
하계삼익선경,서울특별시 노원구 노원로 214,37.6390508,127.076932
신림2차푸르지오,서울특별시 관악구 난곡로 66,37.4613553,126.9199177
한남하이츠,서울특별시 성동구 독서당로 156,37.539745,127.0141559
옥수삼성,서울특별시 성동구 독서당로 218,37.5423772,127.0140492
중계건영2차,서울특별시 노원구 덕릉로 517,37.6474564,127.0666719
서울숲힐스테이트,서울특별시 성동구 성수일로4길 26,37.5412384,127.0521533
쌍용예가클래식,서울특별시 서초구 방배로37길 26-9,37.493704,126.9877923
은평뉴타운상림마을5단지,서울특별시 은평구 진관4로 87,37.6475351,126.9308402
서강한화오벨리스크스위트,서울특별시 마포구 창전로 45,37.5465994,126.9318242
삼선푸르지오아파트,서울특별시 성북구 보문로29다길 31,37.5834945,127.0133812
은평뉴타운상림마을7단지,서울특별시 은평구 진관4로 100,37.6506098,126.9355523
송파파인타운2단지,서울특별시 송파구 충민로 151,37.4839845,127.1312464
우장산힐스테이트,서울특별시 강서구 강서로 348,37.5557622,126.8414673
마포동원베네스트,서울특별시 마포구 도화4길 41,37.5403318,126.9523524
종암아이파크1차,서울특별시 성북구 종암로21길 127,37.6025494,127.0298689
롯데캐슬골드,서울특별시 송파구 올림픽로 269,37.5145557,127.1006125
은평뉴타운상림마을6단지,서울특별시 은평구 진관4로 107,37.6354766,126.924494
래미안미아1차,서울특별시 강북구 삼양로 256,37.6260408,127.019477
상계미도,서울특별시 노원구 덕릉로 459-18,37.6461776,127.0610376
이문삼성래미안아파트,서울특별시 동대문구 천장산로11길 22,37.6004297,127.0568469
홍은두산,서울특별시 서대문구 모래내로 309,37.579183,126.9316681
대림동현대,서울특별시 영등포구 시흥대로187길 12,37.4930349,126.9081879
은평뉴타운상림마을4단지,서울특별시 은평구 진관4로 77,37.6482939,126.9293087
수유극동아파트,서울특별시 강북구 인수봉로72길 4,37.6419306,127.0121448
관악산휴먼시아,서울특별시 관악구 난곡로 55,37.4616692,126.9212183
연희성원,서울특별시 서대문구 연희로32길 48,37.5764491,126.9391726
방학청구,서울특별시 도봉구 해등로 264,37.6580542,127.0262264
관악벽산블루밍,서울특별시 관악구 은천로 93,37.4884554,126.9454566
은평뉴타운상림마을10단지,서울특별시 은평구 진관4로 48-17,37.648085,126.9286741
은평뉴타운상림마을11단지,서울특별시 은평구 진관4로 48-8,37.6322759,126.9262676
방학우성1차,서울특별시 도봉구 해등로 286-5,37.6579642,127.0238773
우장산롯데2차,서울특별시 강서구 우장산로 47,37.5546673,126.8427487
묵동극동늘푸른아파트,서울특별시 중랑구 동일로 941,37.6146204,127.0761342
DMC센트레빌,서울특별시 서대문구 거북골로 120,37.5759769,126.9156652
북한산힐스테이트1차,서울특별시 은평구 불광로2길 33,37.6126016,126.937083
방학명품ESA2단지,서울특별시 도봉구 도봉로150길 43,37.6664768,127.0456136
청담건영아파트,서울특별시 강남구 도산대로89길 49,37.5274224,127.0523705
성수2차대우,서울특별시 성동구 상원6길 16,37.5484228,127.0501613
SK북한산시티아파트,서울특별시 강북구 솔샘로 174,37.6181847,127.0123459
목동2단지,서울특별시 양천구 목동서로 70,37.5374403,126.8762201
보라매우성,서울특별시 동작구 보라매로5길 5,37.492347,126.9251592
서초5차e편한세상,서울특별시 서초구 명달로4길 30,37.4785869,127.0077138
상도현대,서울특별시 동작구 사당로2길 2-32,37.5009336,126.9516004
성북역신도브래뉴,서울특별시 노원구 광운로19길 38,37.6231556,127.0589298
신림벽산블루밍,서울특별시 관악구 호암로 519,37.4639058,126.9311914
상계주공3단지,서울특별시 노원구 동일로 1389,37.651102,127.0568216
역삼개나리푸르지오,서울특별시 강남구 역삼로 314,37.4997285,127.0499952
충정로 skview 아파트,서울특별시 서대문구 서소문로 43-8,37.4997285,127.0499952
북아현두산,서울특별시 서대문구 이화여대8길 62,37.5591855,126.9501114
월드컵아이파크1단지,서울특별시 마포구 모래내로9길 6,37.5676304,126.9145216
상도삼호,서울특별시 동작구 상도로 407,37.5012043,126.9509806
개봉동아이파크,서울특별시 구로구 개봉로2길 133-15,37.4898358,126.8597407
은평뉴타운상림마을제3단지,서울특별시 은평구 진관4로 47,37.6489181,126.9298087
송파삼성래미안,서울특별시 송파구 오금로32길 14,37.5047161,127.1182753
등촌우성101동,서울특별시 강서구 화곡로68길 115,37.5573574,126.8603664
등촌우성102동,서울특별시 강서구 화곡로68길 103,37.5576039,126.8599261
월계역신도브래뉴,서울특별시 노원구 광운로 132,37.6290399,127.0586793
고척마젤란,서울특별시 구로구 경인로47길 128,37.5043049,126.8640402
하계한신동성,서울특별시 노원구 한글비석로 151,37.6398137,127.0755733
송파파인타운3단지,서울특별시 송파구 충민로 152,37.483645,127.1328807
수서1-1단지아파트,서울특별시 강남구 양재대로55길 10,37.4927536,127.0909823
종로센트레빌,서울특별시 종로구 동망산길 47,37.5809831,127.015931
관악동부센트레빌,서울특별시 관악구 은천로33길 5,37.4871792,126.951485
신동아아파트,서울특별시 서초구 사임당로 137,37.4904484,127.024545
서울대입구삼성아파트,서울특별시 관악구 관악로 125,37.4762414,126.9519775
연희임광아파트,서울특별시 서대문구 동교로 291,37.5652014,126.927128
정릉1차e-편한세상,서울특별시 성북구 솔샘로24길 15,37.6150052,127.0101777
삼성래미안공덕4차,서울특별시 마포구 마포대로11길 50,37.5499127,126.9514027
흑석청호,서울 동작구 흑석동 327,37.5499127,126.9514027
공릉현대성우,서울특별시 노원구 공릉로27길 110,37.6264863,127.0774494
종암극동아파트,서울특별시 성북구 북악산로29길 67,37.5952864,127.0336943
서초현대아파트,서울특별시 서초구 사임당로19길 10,37.4909929,127.0201769
상계동아불암,서울특별시 노원구 덕릉로 780,37.6681544,127.0804264
명수대현대,서울특별시 동작구 현충로 119,37.5079377,126.9667533
옥수강변풍림아이원,서울특별시 성동구 뚝섬로 51,37.5422717,127.0195002
벽산라이브파크,서울특별시 강북구 인수봉로 18,37.6211567,127.0108365
목동트라팰리스,서울특별시 양천구 오목로 299,37.5254967,126.8702493
임광관악파크,서울특별시 관악구 난곡로 167,37.4698044,126.9190257
등촌대동황토방2차아파트,서울특별시 강서구 공항대로55길 50,37.5551809,126.8624005
삼성산주공3단지,서울특별시 관악구 호암로 399,37.462525,126.9261337
역삼2차아이파크,서울특별시 강남구 도곡로57길 12,37.4967427,127.0520538
서초현대ESA2차,서울특별시 서초구 반포대로 122,37.4910746,127.0085802
현대슈퍼빌,서울특별시 서초구 서초중앙로 15,37.4830098,127.0160375
서초삼성쉐르빌2,서울특별시 서초구 강남대로53길 11,37.4939673,127.0278848
방화동성아파트,서울특별시 강서구 금낭화로23길 8,37.5796258,126.8119701
길성그랑프리텔1차,서울특별시 강서구 강서로46길 79,37.5520159,126.8393323
시흥월드메르디앙,서울특별시 금천구 독산로36길 36,37.4597256,126.9071306
봉천벽산블루밍3차,서울특별시 관악구 은천로15길 24,37.4884282,126.9444368
하계한신,서울특별시 노원구 공릉로 351,37.6377945,127.068697
신내6단지,서울특별시 중랑구 신내로19길 42,37.6153429,127.091946
하왕십리극동미라주2,서울특별시 성동구 난계로 73,37.5595286,127.023323
월계2차한일,서울특별시 노원구 석계로13길 6-10,37.6212242,127.0620191
테헤란로대우아이빌,서울특별시 강남구 테헤란로 428,37.5056902,127.0540217
개포한신,서울특별시 강남구 개포로110길 43,37.4911612,127.0786887
상암휴먼시아2단지아파트,서울특별시 마포구 월드컵북로42가길 11,37.575112,126.896649
방배신삼호,서울특별시 서초구 방배로 270,37.4971521,126.9897344
한가람아파트,서울특별시 용산구 이촌로 201,37.5213784,126.9735558
SK허브진주상복합아파트,서울특별시 강동구 천호대로 1092,37.5351624,127.1327538
봉천동아제2,서울특별시 관악구 관악로37길 20,37.487826,126.9561802
여의도자이,서울특별시 영등포구 여의동로3길 10,37.5182033,126.925912
역삼쌍용플래티넘밸류,서울특별시 강남구 테헤란로4길 46,37.4954031,127.0304134
성수쌍용,서울특별시 성동구 상원길 63,37.5495253,127.04712
래미안엘파인,서울특별시 동대문구 한천로37길 33,37.575779,127.065374
방학동부센트레빌,서울특별시 도봉구 방학로 120,37.6633044,127.0395517
라이프아파트,서울특별시 관악구 문성로 86,37.4771101,126.913185
신동아5,서울특별시 동작구 동작대로29길 118,37.4910995,126.9769147
이촌,서울특별시 용산구 이촌로87길 21,37.5200205,126.9779266
낙성대현대홈타운,서울특별시 관악구 솔밭로7길 16,37.4806862,126.9635627
래미안석관,서울특별시 성북구 화랑로 214,37.6083777,127.0545119
브라운스톤공덕,서울특별시 마포구 백범로 230,37.5411796,126.9559987
신동아리버파크제2관리사무소,서울특별시 동작구 만양로 19,37.5065005,126.9429565
관악국제산장,서울특별시 관악구 호암로 417,37.4612442,126.9280602
서초아트자이,서울특별시 서초구 반포대로 58,37.4856728,127.0113898
타워팰리스1차,서울특별시 강남구 언주로30길 56,37.4882233,127.0544454
길동삼익파크,서울특별시 강동구 명일로 293,37.5448343,127.1476738
목동10단지,서울특별시 양천구 목동서로 400,37.5165011,126.8587497
연희대림아파트,서울특별시 서대문구 연희로32길 20,37.5754721,126.9362953
타워팰리스2차,서울특별시 강남구 언주로30길 57,37.4897089,127.0544975
한일써너스빌아파트,서울특별시 중랑구 망우로 346,37.5972558,127.0912331
강일리버파크5단지,서울특별시 강동구 아리수로97길 20,37.5678721,127.1782697
강일리버파크7단지,서울특별시 강동구 아리수로98길 25,37.5653816,127.1784546
양재SK허브프리모,서울특별시 강남구 강남대로 240,37.4853103,127.0344139
정릉2차 e편한세상,서울특별시 성북구 북악산로 851,37.6001826,127.018734
벽산1,서울특별시 도봉구 방학로11길 36,37.6600699,127.0317182
창신쌍용아파트 2단지,서울특별시 종로구 낙산길 198,37.5806115,127.0117627
용산파크자이,서울특별시 용산구 한강대로 205,37.5364563,126.9733121
은평뉴타운박석고개13단지아파트,서울특별시 은평구 진관1로 22,37.635659,126.9148018
은평뉴타운박석고개1단지,서울특별시 은평구 진관1로 21-10,37.6337149,126.9207485
홍은동부센트레빌,서울특별시 서대문구 통일로 553,37.5972741,126.9378412
미아경남아너스빌,서울특별시 강북구 오패산로30길 30,37.6151287,127.0357365
래미안퍼스티지,서울특별시 서초구 반포대로 275,37.502999,126.9997222
천호동아코아,서울특별시 강동구 구천면로 189,37.5412753,127.125912
도곡한신,서울 강남구 도곡동 도곡한신아파트,37.4878586,127.0402373
미아현대,서울특별시 강북구 도봉로68길 26,37.6307852,127.0258094
중계주공1단지,서울특별시 노원구 동일로210길 22,37.6478396,127.0658713
중계주공9단지,서울특별시 노원구 노원로16길 15,37.6430931,127.0742657
개포7차우성,서울특별시 강남구 개포로110길 15,37.4922905,127.0783361
창동대우그린아파트,서울특별시 도봉구 덕릉로 371,37.6463829,127.0495729
송파성원상떼빌,서울특별시 송파구 송파대로28길 27,37.4950598,127.1204414
돈의문센트레빌,서울특별시 서대문구 독립문로14길 33,37.5662487,126.9613516
목동6단지,서울특별시 양천구 목동동로 430,37.5350632,126.8850851
홍제청구3차,서울특별시 서대문구 통일로 332,37.5804108,126.9528765
타워팰리스G동,서울특별시 강남구 언주로30길 26,37.4873383,127.0528363
신림현대,서울특별시 관악구 신림로29길 8,37.4749367,126.9323775
성동삼성쉐르빌,서울특별시 성동구 무학로6길 50,37.5643993,127.0349533
한화오벨리스크,서울특별시 송파구 중대로 127,37.4948246,127.1219307
삼선힐스테이트,서울특별시 성북구 낙산길 243-15,37.5821384,127.0135763
고척LIG리가아파트,서울특별시 구로구 중앙로12길 7,37.5060999,126.8620712
금천이랜드해가든,서울특별시 금천구 벚꽃로6길 3,37.4610157,126.8930588
서울주택도시공사 수서6단지,서울특별시 강남구 광평로56길 11,37.487264,127.1045185
고척파크푸르지오,서울특별시 구로구 중앙로 121,37.5071864,126.857232
밤섬경남아너스빌,서울특별시 마포구 독막로28길 10,37.5466152,126.936584
보라매삼성쉐르빌,서울특별시 동작구 보라매로5길 43,37.4914294,126.9233792
홍은미성아파트,서울특별시 서대문구 연희로41길 102,37.5938186,126.935449
목동현대A,서울 양천구 목동 931번지,37.5231682,126.8777861
수유역두산위브,서울특별시 강북구 덕릉로41길 12,37.6358401,127.0320254
중랑해모로,서울특별시 중랑구 양원역로6가길 19,37.6027085,127.1101282
개포주공4단지,서울 강남구 개포동 189,37.4863102,127.0731699
서초삼풍,서울특별시 서초구 서초중앙로 200,37.4991876,127.0160708
한화진넥스빌,서울특별시 강남구 언주로86길 11,37.501959,127.0442572
고척대우,서울특별시 구로구 고척로52길 48,37.5030323,126.8554746
서초이오빌,서울특별시 서초구 효령로53길 45,37.4865806,127.0131345
수락리버시티 4단지,서울특별시 노원구 누원로 18,37.6860425,127.0537182
수락리버시티3단지,서울특별시 노원구 누원로 28,37.6877248,127.0542161
온수힐스테이트,서울특별시 구로구 부일로9길 127,37.4971229,126.820976
고덕아이파크아파트,서울특별시 강동구 동남로79길 26,37.5589031,127.1556425
DMC자이1단지,서울특별시 은평구 수색로 217,37.5792037,126.898834
래미안세레니티,서울특별시 성북구 종암로23길 35,37.5993452,127.0313424
래미안그레이튼3차,서울특별시 강남구 도곡로43길 20,37.4964808,127.0481579
남산센트럴자이,서울특별시 중구 퇴계로 235,37.5627311,126.9976903
이튼타워리버5차,서울특별시 광진구 능동로4길 40,37.5321145,127.0691221
은평뉴타운마고정3단지,서울특별시 은평구 진관2로 90,37.6333845,126.9272246
은평뉴타운마고정11단지,서울특별시 은평구 진관1로 55,37.6337285,126.914929
남산SK리더스뷰,서울특별시 중구 퇴계로 72,37.5591878,126.9806109
송파파인타운1단지,서울특별시 송파구 충민로 188,37.4868275,127.1346692
은평뉴타운마고정2단지,서울특별시 은평구 진관2로 60,37.6318934,126.9198476
신내데시앙,서울특별시 중랑구 용마산로 669,37.6109282,127.0994663
래미안허브리츠,서울특별시 동대문구 정릉천동로 36,37.5755,127.035661
은평뉴타운우물골8단지,서울특별시 은평구 진관2로 111-7,37.6366325,126.9315448
은평뉴타운우물골5단지,서울특별시 은평구 진관2로 77,37.6345812,126.9276171
은평뉴타운우물골6단지,서울특별시 은평구 진관2로 57-7,37.6354766,126.924494
은평뉴타운우물골7단지,서울특별시 은평구 진관2로 57-37,37.6371052,126.928169
신길자이,서울특별시 영등포구 가마산로79길 19,37.506462,126.9165908
양천중앙하이츠,서울특별시 양천구 목동남로2길 60-7,37.5054476,126.8643152
방화삼성꽃마을,서울특별시 강서구 양천로18길 27,37.5723918,126.8134094
한강밤섬자이아파트,서울특별시 마포구 토정로 158,37.5448541,126.9281273
상도두산위브,서울특별시 동작구 상도로30길 39,37.5048087,126.9438666
당산반도유보라,서울특별시 영등포구 국회대로 597,37.5273128,126.9013023
꿈의숲푸르지오,서울특별시 성북구 오패산로16가길 40,37.6107743,127.0390029
행당두산위브아파트,서울특별시 성동구 행당로8길 8,37.5572723,127.0309513
염창강변월드메르디앙,서울특별시 강서구 양천로63길 51,37.5577389,126.8654272
서초교대e편한세상,서울특별시 서초구 서초중앙로24길 33,37.4964455,127.0166404
흑석해가든,서울특별시 동작구 서달로 150,37.5066777,126.9621949
상암휴먼시아1단지,서울특별시 마포구 월드컵북로43길 11,37.5740878,126.8968328
래미안트리베라2차,서울특별시 강북구 삼양로27길 19,37.6175436,127.0204597
황학아크로타워,서울특별시 중구 퇴계로 447,37.5664017,127.0214788
래미안트리베라1차,서울특별시 강북구 삼양로19길 25,37.6134883,127.0212663
신공덕삼성임대,서울특별시 마포구 백범로37길 6,37.5422845,126.9560689
공덕2삼성임대,서울특별시 마포구 마포대로20길 26,37.5509157,126.9595592
북가좌삼호제2,서울특별시 서대문구 거북골로 154,37.5768267,126.9121106
당산쌍용예가클래식,서울특별시 영등포구 당산로31길 32,37.5276902,126.8936328
리첸시아용산,서울특별시 용산구 백범로 341,37.5383221,126.967643
래미안그레이튼,서울특별시 강남구 도곡로43길 21,37.4951609,127.0472661
남가좌현대제2,서울특별시 서대문구 가재울로 45,37.5747183,126.920496
양천롯데캐슬,서울특별시 양천구 오목로5길 19,37.5233264,126.8400971
방배서리풀e편한세상,서울특별시 서초구 효령로33길 50,37.4839116,126.9983266
은평뉴타운구파발9-2단지,서울특별시 은평구 진관3로 77,37.6438336,126.9238442
상암월드컵파크11단지,서울특별시 마포구 월드컵북로 502-37,37.587704,126.882139
은평뉴타운구파발9단지1관리,서울특별시 은평구 진관3로 67,37.6381577,126.9192866
효창파크푸르지오,서울특별시 용산구 백범로 260,37.5403072,126.9575243
청계벽산아파트제2관리사무소,서울특별시 성동구 무학로 50,37.5694004,127.0311734
오류동부골든SH임대,서울특별시 구로구 고척로 49,37.4991205,126.8397859
월계사슴1단지,서울특별시 노원구 월계로 372,37.6300507,127.0605132
금호베스트빌아파트 제2관리사무소,서울특별시 성동구 난계로 114-31,37.561962,127.0257287
행당대림제2,서울특별시 성동구 행당로 79,37.557906,127.0271171
길음뉴타운8단지,서울특별시 성북구 길음로 33,37.6074358,127.0179788
신정삼성SH임대,서울특별시 양천구 신목로 5,37.5171091,126.8762766
서울주택도시공사 목동현대B 임대아파트,서울특별시 양천구 신목로 10,37.5181305,126.8766622
독립문극동임대,서울특별시 서대문구 독립문공원길 17,37.5725382,126.9548958
브라운스톤용산,서울특별시 용산구 효창원로 88,37.5362695,126.9591984
도봉서원제2,서울특별시 도봉구 마들로 684-20,37.6704232,127.0474639
보라매e편한세상,서울특별시 동작구 보라매로 70,37.4954331,126.9285594
동소문한진임대,서울특별시 성북구 성북로4길 52,37.5949161,127.0102405
정릉풍림아이원임대,서울특별시 성북구 솔샘로25길 11-14,37.6159569,127.0073658
길음SHVILLE,서울특별시 성북구 길음로 74,37.610759,127.0206567
상계동아불암임대,서울특별시 노원구 덕릉로112길 13,37.6662247,127.0786452
북한산힐스테이트3차,서울특별시 은평구 불광로 122-10,37.6181527,126.9357306
상암월드컵파크9단지,서울특별시 마포구 월드컵북로 501,37.5847997,126.8781709
상암월드컵파크12단지,서울특별시 마포구 월드컵북로 502-7,37.5869909,126.8798182
홍제원현대임대,서울특별시 서대문구 통일로34길 43,37.5866004,126.9505613
인왕산현대,서울특별시 서대문구 통일로34길 46,37.5838257,126.9516215
홍제유원하나제2,서울특별시 서대문구 세검정로 134,37.5951028,126.9523764
SK북한산시티임대,서울특별시 강북구 솔샘로 174,37.6199864,127.0127489
상계은빛3단지,서울특별시 노원구 동일로250길 17,37.6829881,127.0572807
신내9단지임대,서울특별시 중랑구 신내로 127,37.6119902,127.0947323
은평뉴타운제각말5단지제2,서울특별시 은평구 연서로48길 11,37.6312466,126.9308273
길음뉴타운8단지제2,서울특별시 성북구 길음로 33,37.6090126,127.0200838
길음뉴타운9단지제2,서울특별시 성북구 길음로9길 50,37.6034115,127.0212232
대림아파트201동,서울특별시 동대문구 이문로54길 16,37.6047975,127.0630015
은평뉴타운제각말5단지제1,서울특별시 은평구 연서로48길 12,37.6284338,126.9321409
은평뉴타운폭포동4단지제2,서울특별시 은평구 연서로44길 7,37.6379708,126.9348048
송천센트레빌,서울특별시 강북구 숭인로 39,37.6125334,127.0252696
래미안라센트,서울특별시 성북구 종암로24가길 80,37.599309,127.0386085
이문현대임대,서울특별시 동대문구 한천로58길 135,37.6022736,127.0708389
이문쌍용임대,서울특별시 동대문구 한천로58길 75-45,37.6017621,127.0679412
길음뉴타운7단지,서울특별시 성북구 길음로13길 22,37.6097649,127.0188321
은평뉴타운제각말5단지제3관리사무소,서울특별시 은평구 연서로 487,37.6340464,126.9168896
봉천두산3단지,서울특별시 관악구 양녕로 31,37.4853533,126.9459464
당산SHVILLE,서울특별시 영등포구 영신로 183,37.5242149,126.9015338
은평뉴타운폭포동4단지제3,서울특별시 은평구 연서로44길 30,37.6434624,126.9396204
신정푸른마을1단지임대,서울특별시 양천구 신정로7길 70,37.5126705,126.8362128
종암SK제2,서울특별시 성북구 종암로24가길 53,37.6016999,127.0348767
월곡두산제2아파트임대,서울특별시 성북구 오패산로 46,37.60521,127.0394001
동아에코빌,서울특별시 성북구 장월로1길 28,37.6066138,127.0451712
래미안종암3차,서울특별시 성북구 종암로23길 35,37.6011338,127.0388225
래미안종암2차,서울특별시 성북구 종암로23길 35,37.5983534,127.0298341
면목,서울특별시 중랑구 용마산로 228,37.5918939,127.0878438
산천리버힐제2,서울특별시 용산구 효창원로13길 7,37.5353,126.9513
전농동아임대,서울특별시 동대문구 서울시립대로 31,37.5749269,127.0462304
행당한진타운제2,서울특별시 성동구 행당로 82,37.5552849,127.0264327
금호대우임대,서울특별시 성동구 독서당로 272,37.5467561,127.0222961
청량리홍릉동부임대,서울특별시 동대문구 제기로26길 26,37.5854139,127.0450821
